{
"type": "FeatureCollection",
"features": [
{ "type": "Feature", "properties": { "city": "Monterey, California", "time_int": 0 }, "geometry": { "type": "Point", "coordinates": [ -121.3877428, 36.2231079 ] } },
{ "type": "Feature", "properties": { "city": "Monterey, California", "time_int": 19 }, "geometry": { "type": "Point", "coordinates": [ -121.3877428, 36.2231079 ] } },
{ "type": "Feature", "properties": { "city": "Smithville, Tennessee", "time_int": 20 }, "geometry": { "type": "Point", "coordinates": [ -85.8141516, 35.9606186 ] } },
{ "type": "Feature", "properties": { "city": "Smithville, Tennessee", "time_int": 24 }, "geometry": { "type": "Point", "coordinates": [ -85.8141516, 35.9606186 ] } },
{ "type": "Feature", "properties": { "city": "Springfield, Ohio", "time_int": 25 }, "geometry": { "type": "Point", "coordinates": [ -83.810138, 39.9234046 ] } },
{ "type": "Feature", "properties": { "city": "Springfield, Ohio", "time_int": 59 }, "geometry": { "type": "Point", "coordinates": [ -83.810138, 39.9234046 ] } },
{ "type": "Feature", "properties": { "city": "Garmisch-Partenkirchen, Germany", "time_int": 60 }, "geometry": { "type": "Point", "coordinates": [ 11.0962815, 47.4923741 ] } },
{ "type": "Feature", "properties": { "city": "Garmisch-Partenkirchen, Germany", "time_int": 109 }, "geometry": { "type": "Point", "coordinates": [ 11.0962815, 47.4923741 ] } },
{ "type": "Feature", "properties": { "city": "Salzburg, Austria", "time_int": 110 }, "geometry": { "type": "Point", "coordinates": [ 13.0464806, 47.7981346 ] } },
{ "type": "Feature", "properties": { "city": "Salzburg, Austria", "time_int": 112 }, "geometry": { "type": "Point", "coordinates": [ 13.0464806, 47.7981346 ] } },
{ "type": "Feature", "properties": { "city": "Garmisch-Partenkirchen, Germany", "time_int": 113 }, "geometry": { "type": "Point", "coordinates": [ 11.0962815, 47.4923741 ] } },
{ "type": "Feature", "properties": { "city": "Garmisch-Partenkirchen, Germany", "time_int": 166 }, "geometry": { "type": "Point", "coordinates": [ 11.0962815, 47.4923741 ] } },
{ "type": "Feature", "properties": { "city": "Vicenza, Italy", "time_int": 167 }, "geometry": { "type": "Point", "coordinates": [ 11.406354256602491, 45.63485905 ] } },
{ "type": "Feature", "properties": { "city": "Venice, Italy", "time_int": 168 }, "geometry": { "type": "Point", "coordinates": [ 12.3345898, 45.4371908 ] } },
{ "type": "Feature", "properties": { "city": "Venice, Italy", "time_int": 169 }, "geometry": { "type": "Point", "coordinates": [ 12.3345898, 45.4371908 ] } },
{ "type": "Feature", "properties": { "city": "Vicenza, Italy", "time_int": 170 }, "geometry": { "type": "Point", "coordinates": [ 11.406354256602491, 45.63485905 ] } },
{ "type": "Feature", "properties": { "city": "Garmisch-Partenkirchen, Germany", "time_int": 171 }, "geometry": { "type": "Point", "coordinates": [ 11.0962815, 47.4923741 ] } },
{ "type": "Feature", "properties": { "city": "Garmisch-Partenkirchen, Germany", "time_int": 176 }, "geometry": { "type": "Point", "coordinates": [ 11.0962815, 47.4923741 ] } },
{ "type": "Feature", "properties": { "city": "Springfield, Ohio", "time_int": 177 }, "geometry": { "type": "Point", "coordinates": [ -83.810138, 39.9234046 ] } },
{ "type": "Feature", "properties": { "city": "Springfield, Ohio", "time_int": 201 }, "geometry": { "type": "Point", "coordinates": [ -83.810138, 39.9234046 ] } },
{ "type": "Feature", "properties": { "city": "Smithville, Tennessee", "time_int": 202 }, "geometry": { "type": "Point", "coordinates": [ -85.8141516, 35.9606186 ] } },
{ "type": "Feature", "properties": { "city": "Smithville, Tennessee", "time_int": 209 }, "geometry": { "type": "Point", "coordinates": [ -85.8141516, 35.9606186 ] } },
{ "type": "Feature", "properties": { "city": "Garmisch-Partenkirchen, Germany", "time_int": 210 }, "geometry": { "type": "Point", "coordinates": [ 11.0962815, 47.4923741 ] } },
{ "type": "Feature", "properties": { "city": "Garmisch-Partenkirchen, Germany", "time_int": 244 }, "geometry": { "type": "Point", "coordinates": [ 11.0962815, 47.4923741 ] } },
{ "type": "Feature", "properties": { "city": "Zurich, Switzerland", "time_int": 245 }, "geometry": { "type": "Point", "coordinates": [ 8.5410422, 47.3744489 ] } },
{ "type": "Feature", "properties": { "city": "Zurich, Switzerland", "time_int": 248 }, "geometry": { "type": "Point", "coordinates": [ 8.5410422, 47.3744489 ] } },
{ "type": "Feature", "properties": { "city": "Garmisch-Partenkirchen, Germany", "time_int": 249 }, "geometry": { "type": "Point", "coordinates": [ 11.0962815, 47.4923741 ] } },
{ "type": "Feature", "properties": { "city": "Garmisch-Partenkirchen, Germany", "time_int": 259 }, "geometry": { "type": "Point", "coordinates": [ 11.0962815, 47.4923741 ] } },
{ "type": "Feature", "properties": { "city": "Nürnberg, Germany", "time_int": 260 }, "geometry": { "type": "Point", "coordinates": [ 11.077298, 49.453872 ] } },
{ "type": "Feature", "properties": { "city": "Garmisch-Partenkirchen, Germany", "time_int": 261 }, "geometry": { "type": "Point", "coordinates": [ 11.0962815, 47.4923741 ] } },
{ "type": "Feature", "properties": { "city": "Garmisch-Partenkirchen, Germany", "time_int": 297 }, "geometry": { "type": "Point", "coordinates": [ 11.0962815, 47.4923741 ] } },
{ "type": "Feature", "properties": { "city": "Florence, Italy", "time_int": 298 }, "geometry": { "type": "Point", "coordinates": [ 11.2555757, 43.7698712 ] } },
{ "type": "Feature", "properties": { "city": "Florence, Italy", "time_int": 300 }, "geometry": { "type": "Point", "coordinates": [ 11.2555757, 43.7698712 ] } },
{ "type": "Feature", "properties": { "city": "San Gimignano, Italy", "time_int": 301 }, "geometry": { "type": "Point", "coordinates": [ 11.0432115, 43.4677993 ] } },
{ "type": "Feature", "properties": { "city": "San Gimignano, Italy", "time_int": 302 }, "geometry": { "type": "Point", "coordinates": [ 11.0432115, 43.4677993 ] } },
{ "type": "Feature", "properties": { "city": "Pisa, Italy", "time_int": 303 }, "geometry": { "type": "Point", "coordinates": [ 10.4018624, 43.7159395 ] } },
{ "type": "Feature", "properties": { "city": "Lucca, Italy", "time_int": 304 }, "geometry": { "type": "Point", "coordinates": [ 10.454430026192636, 44.0177639 ] } },
{ "type": "Feature", "properties": { "city": "Livorno, Italy", "time_int": 305 }, "geometry": { "type": "Point", "coordinates": [ 10.340281392353766, 42.79021905 ] } },
{ "type": "Feature", "properties": { "city": "Garmisch-Partenkirchen, Germany", "time_int": 306 }, "geometry": { "type": "Point", "coordinates": [ 11.0962815, 47.4923741 ] } },
{ "type": "Feature", "properties": { "city": "Garmisch-Partenkirchen, Germany", "time_int": 332 }, "geometry": { "type": "Point", "coordinates": [ 11.0962815, 47.4923741 ] } },
{ "type": "Feature", "properties": { "city": "Lugano, Switzerland", "time_int": 333 }, "geometry": { "type": "Point", "coordinates": [ 8.9520281, 46.0050102 ] } },
{ "type": "Feature", "properties": { "city": "Lugano, Switzerland", "time_int": 335 }, "geometry": { "type": "Point", "coordinates": [ 8.9520281, 46.0050102 ] } },
{ "type": "Feature", "properties": { "city": "Garmisch-Partenkirchen, Germany", "time_int": 336 }, "geometry": { "type": "Point", "coordinates": [ 11.0962815, 47.4923741 ] } },
{ "type": "Feature", "properties": { "city": "Garmisch-Partenkirchen, Germany", "time_int": 358 }, "geometry": { "type": "Point", "coordinates": [ 11.0962815, 47.4923741 ] } },
{ "type": "Feature", "properties": { "city": "Munich, Germany", "time_int": 359 }, "geometry": { "type": "Point", "coordinates": [ 11.5753822, 48.1371079 ] } },
{ "type": "Feature", "properties": { "city": "Garmisch-Partenkirchen, Germany", "time_int": 360 }, "geometry": { "type": "Point", "coordinates": [ 11.0962815, 47.4923741 ] } },
{ "type": "Feature", "properties": { "city": "Garmisch-Partenkirchen, Germany", "time_int": 398 }, "geometry": { "type": "Point", "coordinates": [ 11.0962815, 47.4923741 ] } },
{ "type": "Feature", "properties": { "city": "Siena, Italy", "time_int": 399 }, "geometry": { "type": "Point", "coordinates": [ 11.467181161339118, 43.1672254 ] } },
{ "type": "Feature", "properties": { "city": "San Gimignano, Italy", "time_int": 400 }, "geometry": { "type": "Point", "coordinates": [ 11.0432115, 43.4677993 ] } },
{ "type": "Feature", "properties": { "city": "San Gimignano, Italy", "time_int": 401 }, "geometry": { "type": "Point", "coordinates": [ 11.0432115, 43.4677993 ] } },
{ "type": "Feature", "properties": { "city": "Rome, Italy", "time_int": 402 }, "geometry": { "type": "Point", "coordinates": [ 12.4829321, 41.8933203 ] } },
{ "type": "Feature", "properties": { "city": "Rome, Italy", "time_int": 404 }, "geometry": { "type": "Point", "coordinates": [ 12.4829321, 41.8933203 ] } },
{ "type": "Feature", "properties": { "city": "Venice, Italy", "time_int": 405 }, "geometry": { "type": "Point", "coordinates": [ 12.3345898, 45.4371908 ] } },
{ "type": "Feature", "properties": { "city": "Venice, Italy", "time_int": 406 }, "geometry": { "type": "Point", "coordinates": [ 12.3345898, 45.4371908 ] } },
{ "type": "Feature", "properties": { "city": "Garmisch-Partenkirchen, Germany", "time_int": 407 }, "geometry": { "type": "Point", "coordinates": [ 11.0962815, 47.4923741 ] } },
{ "type": "Feature", "properties": { "city": "Garmisch-Partenkirchen, Germany", "time_int": 475 }, "geometry": { "type": "Point", "coordinates": [ 11.0962815, 47.4923741 ] } },
{ "type": "Feature", "properties": { "city": "Munich, Germany", "time_int": 476 }, "geometry": { "type": "Point", "coordinates": [ 11.5753822, 48.1371079 ] } },
{ "type": "Feature", "properties": { "city": "Garmisch-Partenkirchen, Germany", "time_int": 477 }, "geometry": { "type": "Point", "coordinates": [ 11.0962815, 47.4923741 ] } },
{ "type": "Feature", "properties": { "city": "Garmisch-Partenkirchen, Germany", "time_int": 507 }, "geometry": { "type": "Point", "coordinates": [ 11.0962815, 47.4923741 ] } },
{ "type": "Feature", "properties": { "city": "Rotenburg, Germany", "time_int": 508 }, "geometry": { "type": "Point", "coordinates": [ 9.4049292, 53.1108906 ] } },
{ "type": "Feature", "properties": { "city": "Rotenburg, Germany", "time_int": 509 }, "geometry": { "type": "Point", "coordinates": [ 9.4049292, 53.1108906 ] } },
{ "type": "Feature", "properties": { "city": "Garmisch-Partenkirchen, Germany", "time_int": 510 }, "geometry": { "type": "Point", "coordinates": [ 11.0962815, 47.4923741 ] } },
{ "type": "Feature", "properties": { "city": "Garmisch-Partenkirchen, Germany", "time_int": 542 }, "geometry": { "type": "Point", "coordinates": [ 11.0962815, 47.4923741 ] } },
{ "type": "Feature", "properties": { "city": "Munich, Germany", "time_int": 543 }, "geometry": { "type": "Point", "coordinates": [ 11.5753822, 48.1371079 ] } },
{ "type": "Feature", "properties": { "city": "Garmisch-Partenkirchen, Germany", "time_int": 544 }, "geometry": { "type": "Point", "coordinates": [ 11.0962815, 47.4923741 ] } },
{ "type": "Feature", "properties": { "city": "Garmisch-Partenkirchen, Germany", "time_int": 566 }, "geometry": { "type": "Point", "coordinates": [ 11.0962815, 47.4923741 ] } },
{ "type": "Feature", "properties": { "city": "Columbus, Ohio", "time_int": 567 }, "geometry": { "type": "Point", "coordinates": [ -83.0007065, 39.9622601 ] } },
{ "type": "Feature", "properties": { "city": "Columbus, Ohio", "time_int": 569 }, "geometry": { "type": "Point", "coordinates": [ -83.0007065, 39.9622601 ] } },
{ "type": "Feature", "properties": { "city": "Smithville, Tennessee", "time_int": 570 }, "geometry": { "type": "Point", "coordinates": [ -85.8141516, 35.9606186 ] } },
{ "type": "Feature", "properties": { "city": "Smithville, Tennessee", "time_int": 572 }, "geometry": { "type": "Point", "coordinates": [ -85.8141516, 35.9606186 ] } },
{ "type": "Feature", "properties": { "city": "Springfield, Ohio", "time_int": 573 }, "geometry": { "type": "Point", "coordinates": [ -83.810138, 39.9234046 ] } },
{ "type": "Feature", "properties": { "city": "Springfield, Ohio", "time_int": 576 }, "geometry": { "type": "Point", "coordinates": [ -83.810138, 39.9234046 ] } },
{ "type": "Feature", "properties": { "city": "Columbus, Ohio", "time_int": 577 }, "geometry": { "type": "Point", "coordinates": [ -83.0007065, 39.9622601 ] } },
{ "type": "Feature", "properties": { "city": "Columbus, Ohio", "time_int": 651 }, "geometry": { "type": "Point", "coordinates": [ -83.0007065, 39.9622601 ] } },
{ "type": "Feature", "properties": { "city": "Smithville, Tennessee", "time_int": 652 }, "geometry": { "type": "Point", "coordinates": [ -85.8141516, 35.9606186 ] } },
{ "type": "Feature", "properties": { "city": "Smithville, Tennessee", "time_int": 657 }, "geometry": { "type": "Point", "coordinates": [ -85.8141516, 35.9606186 ] } },
{ "type": "Feature", "properties": { "city": "Columbus, Ohio", "time_int": 658 }, "geometry": { "type": "Point", "coordinates": [ -83.0007065, 39.9622601 ] } },
{ "type": "Feature", "properties": { "city": "Columbus, Ohio", "time_int": 732 }, "geometry": { "type": "Point", "coordinates": [ -83.0007065, 39.9622601 ] } },
{ "type": "Feature", "properties": { "city": "Sparta, New Jersey", "time_int": 733 }, "geometry": { "type": "Point", "coordinates": [ -74.6310081, 41.0401567 ] } },
{ "type": "Feature", "properties": { "city": "Sparta, New Jersey", "time_int": 736 }, "geometry": { "type": "Point", "coordinates": [ -74.6310081, 41.0401567 ] } },
{ "type": "Feature", "properties": { "city": "Columbus, Ohio", "time_int": 737 }, "geometry": { "type": "Point", "coordinates": [ -83.0007065, 39.9622601 ] } },
{ "type": "Feature", "properties": { "city": "Columbus, Ohio", "time_int": 762 }, "geometry": { "type": "Point", "coordinates": [ -83.0007065, 39.9622601 ] } },
{ "type": "Feature", "properties": { "city": "Smithville, Tennessee", "time_int": 763 }, "geometry": { "type": "Point", "coordinates": [ -85.8141516, 35.9606186 ] } },
{ "type": "Feature", "properties": { "city": "Smithville, Tennessee", "time_int": 765 }, "geometry": { "type": "Point", "coordinates": [ -85.8141516, 35.9606186 ] } },
{ "type": "Feature", "properties": { "city": "Atlanta, Georgia (State)", "time_int": 766 }, "geometry": { "type": "Point", "coordinates": [ -84.3902644, 33.7489924 ] } },
{ "type": "Feature", "properties": { "city": "Atlanta, Georgia (State)", "time_int": 768 }, "geometry": { "type": "Point", "coordinates": [ -84.3902644, 33.7489924 ] } },
{ "type": "Feature", "properties": { "city": "Charlottesville, Virginia", "time_int": 769 }, "geometry": { "type": "Point", "coordinates": [ -78.4766781, 38.029306 ] } },
{ "type": "Feature", "properties": { "city": "Charlottesville, Virginia", "time_int": 771 }, "geometry": { "type": "Point", "coordinates": [ -78.4766781, 38.029306 ] } },
{ "type": "Feature", "properties": { "city": "Columbus, Ohio", "time_int": 772 }, "geometry": { "type": "Point", "coordinates": [ -83.0007065, 39.9622601 ] } },
{ "type": "Feature", "properties": { "city": "Columbus, Ohio", "time_int": 797 }, "geometry": { "type": "Point", "coordinates": [ -83.0007065, 39.9622601 ] } },
{ "type": "Feature", "properties": { "city": "Springfield, Ohio", "time_int": 798 }, "geometry": { "type": "Point", "coordinates": [ -83.810138, 39.9234046 ] } },
{ "type": "Feature", "properties": { "city": "Columbus, Ohio", "time_int": 799 }, "geometry": { "type": "Point", "coordinates": [ -83.0007065, 39.9622601 ] } },
{ "type": "Feature", "properties": { "city": "Columbus, Ohio", "time_int": 801 }, "geometry": { "type": "Point", "coordinates": [ -83.0007065, 39.9622601 ] } },
{ "type": "Feature", "properties": { "city": "Dundee, Michigan", "time_int": 802 }, "geometry": { "type": "Point", "coordinates": [ -83.6596596, 41.9572676 ] } },
{ "type": "Feature", "properties": { "city": "Dundee, Michigan", "time_int": 805 }, "geometry": { "type": "Point", "coordinates": [ -83.6596596, 41.9572676 ] } },
{ "type": "Feature", "properties": { "city": "Columbus, Ohio", "time_int": 806 }, "geometry": { "type": "Point", "coordinates": [ -83.0007065, 39.9622601 ] } },
{ "type": "Feature", "properties": { "city": "Columbus, Ohio", "time_int": 905 }, "geometry": { "type": "Point", "coordinates": [ -83.0007065, 39.9622601 ] } },
{ "type": "Feature", "properties": { "city": "Smithville, Tennessee", "time_int": 906 }, "geometry": { "type": "Point", "coordinates": [ -85.8141516, 35.9606186 ] } },
{ "type": "Feature", "properties": { "city": "Smithville, Tennessee", "time_int": 909 }, "geometry": { "type": "Point", "coordinates": [ -85.8141516, 35.9606186 ] } },
{ "type": "Feature", "properties": { "city": "Columbus, Ohio", "time_int": 910 }, "geometry": { "type": "Point", "coordinates": [ -83.0007065, 39.9622601 ] } },
{ "type": "Feature", "properties": { "city": "Columbus, Ohio", "time_int": 935 }, "geometry": { "type": "Point", "coordinates": [ -83.0007065, 39.9622601 ] } },
{ "type": "Feature", "properties": { "city": "Springfield, Ohio", "time_int": 936 }, "geometry": { "type": "Point", "coordinates": [ -83.810138, 39.9234046 ] } },
{ "type": "Feature", "properties": { "city": "Springfield, Ohio", "time_int": 938 }, "geometry": { "type": "Point", "coordinates": [ -83.810138, 39.9234046 ] } },
{ "type": "Feature", "properties": { "city": "Columbus, Ohio", "time_int": 939 }, "geometry": { "type": "Point", "coordinates": [ -83.0007065, 39.9622601 ] } },
{ "type": "Feature", "properties": { "city": "Columbus, Ohio", "time_int": 964 }, "geometry": { "type": "Point", "coordinates": [ -83.0007065, 39.9622601 ] } },
{ "type": "Feature", "properties": { "city": "Springfield, Ohio", "time_int": 965 }, "geometry": { "type": "Point", "coordinates": [ -83.810138, 39.9234046 ] } },
{ "type": "Feature", "properties": { "city": "Springfield, Ohio", "time_int": 966 }, "geometry": { "type": "Point", "coordinates": [ -83.810138, 39.9234046 ] } },
{ "type": "Feature", "properties": { "city": "Columbus, Ohio", "time_int": 967 }, "geometry": { "type": "Point", "coordinates": [ -83.0007065, 39.9622601 ] } },
{ "type": "Feature", "properties": { "city": "Columbus, Ohio", "time_int": 993 }, "geometry": { "type": "Point", "coordinates": [ -83.0007065, 39.9622601 ] } },
{ "type": "Feature", "properties": { "city": "Springfield, Ohio", "time_int": 994 }, "geometry": { "type": "Point", "coordinates": [ -83.810138, 39.9234046 ] } },
{ "type": "Feature", "properties": { "city": "Columbus, Ohio", "time_int": 995 }, "geometry": { "type": "Point", "coordinates": [ -83.0007065, 39.9622601 ] } },
{ "type": "Feature", "properties": { "city": "Columbus, Ohio", "time_int": 1015 }, "geometry": { "type": "Point", "coordinates": [ -83.0007065, 39.9622601 ] } },
{ "type": "Feature", "properties": { "city": "Naples, Florida", "time_int": 1016 }, "geometry": { "type": "Point", "coordinates": [ -81.7942944, 26.1421976 ] } },
{ "type": "Feature", "properties": { "city": "Naples, Florida", "time_int": 1021 }, "geometry": { "type": "Point", "coordinates": [ -81.7942944, 26.1421976 ] } },
{ "type": "Feature", "properties": { "city": "Columbus, Ohio", "time_int": 1022 }, "geometry": { "type": "Point", "coordinates": [ -83.0007065, 39.9622601 ] } },
{ "type": "Feature", "properties": { "city": "Columbus, Ohio", "time_int": 1109 }, "geometry": { "type": "Point", "coordinates": [ -83.0007065, 39.9622601 ] } },
{ "type": "Feature", "properties": { "city": "Farmington Hills, Michigan", "time_int": 1110 }, "geometry": { "type": "Point", "coordinates": [ -83.3771553, 42.4853125 ] } },
{ "type": "Feature", "properties": { "city": "Farmington Hills, Michigan", "time_int": 1112 }, "geometry": { "type": "Point", "coordinates": [ -83.3771553, 42.4853125 ] } },
{ "type": "Feature", "properties": { "city": "Columbus, Ohio", "time_int": 1113 }, "geometry": { "type": "Point", "coordinates": [ -83.0007065, 39.9622601 ] } },
{ "type": "Feature", "properties": { "city": "Columbus, Ohio", "time_int": 1116 }, "geometry": { "type": "Point", "coordinates": [ -83.0007065, 39.9622601 ] } },
{ "type": "Feature", "properties": { "city": "Smithville, Tennessee", "time_int": 1117 }, "geometry": { "type": "Point", "coordinates": [ -85.8141516, 35.9606186 ] } },
{ "type": "Feature", "properties": { "city": "Smithville, Tennessee", "time_int": 1119 }, "geometry": { "type": "Point", "coordinates": [ -85.8141516, 35.9606186 ] } },
{ "type": "Feature", "properties": { "city": "Columbus, Ohio", "time_int": 1120 }, "geometry": { "type": "Point", "coordinates": [ -83.0007065, 39.9622601 ] } },
{ "type": "Feature", "properties": { "city": "Columbus, Ohio", "time_int": 1127 }, "geometry": { "type": "Point", "coordinates": [ -83.0007065, 39.9622601 ] } },
{ "type": "Feature", "properties": { "city": "Frankfurt, Germany", "time_int": 1128 }, "geometry": { "type": "Point", "coordinates": [ 8.6820917, 50.1106444 ] } },
{ "type": "Feature", "properties": { "city": "Frankfurt, Germany", "time_int": 1251 }, "geometry": { "type": "Point", "coordinates": [ 8.6820917, 50.1106444 ] } },
{ "type": "Feature", "properties": { "city": "Garmisch-Partenkirchen, Germany", "time_int": 1252 }, "geometry": { "type": "Point", "coordinates": [ 11.0962815, 47.4923741 ] } },
{ "type": "Feature", "properties": { "city": "Garmisch-Partenkirchen, Germany", "time_int": 1254 }, "geometry": { "type": "Point", "coordinates": [ 11.0962815, 47.4923741 ] } },
{ "type": "Feature", "properties": { "city": "Frankfurt, Germany", "time_int": 1255 }, "geometry": { "type": "Point", "coordinates": [ 8.6820917, 50.1106444 ] } },
{ "type": "Feature", "properties": { "city": "Frankfurt, Germany", "time_int": 1269 }, "geometry": { "type": "Point", "coordinates": [ 8.6820917, 50.1106444 ] } },
{ "type": "Feature", "properties": { "city": "Schinnen, Netherlands", "time_int": 1270 }, "geometry": { "type": "Point", "coordinates": [ 5.8861509, 50.9424885 ] } },
{ "type": "Feature", "properties": { "city": "Schinnen, Netherlands", "time_int": 1272 }, "geometry": { "type": "Point", "coordinates": [ 5.8861509, 50.9424885 ] } },
{ "type": "Feature", "properties": { "city": "Frankfurt, Germany", "time_int": 1273 }, "geometry": { "type": "Point", "coordinates": [ 8.6820917, 50.1106444 ] } },
{ "type": "Feature", "properties": { "city": "Frankfurt, Germany", "time_int": 1321 }, "geometry": { "type": "Point", "coordinates": [ 8.6820917, 50.1106444 ] } },
{ "type": "Feature", "properties": { "city": "Hamburg, Germany", "time_int": 1322 }, "geometry": { "type": "Point", "coordinates": [ 10.000654, 53.550341 ] } },
{ "type": "Feature", "properties": { "city": "Hamburg, Germany", "time_int": 1323 }, "geometry": { "type": "Point", "coordinates": [ 10.000654, 53.550341 ] } },
{ "type": "Feature", "properties": { "city": "Brussels, Belgium", "time_int": 1324 }, "geometry": { "type": "Point", "coordinates": [ 4.351697, 50.8465573 ] } },
{ "type": "Feature", "properties": { "city": "Brussels, Belgium", "time_int": 1326 }, "geometry": { "type": "Point", "coordinates": [ 4.351697, 50.8465573 ] } },
{ "type": "Feature", "properties": { "city": "Frankfurt, Germany", "time_int": 1327 }, "geometry": { "type": "Point", "coordinates": [ 8.6820917, 50.1106444 ] } },
{ "type": "Feature", "properties": { "city": "Frankfurt, Germany", "time_int": 1335 }, "geometry": { "type": "Point", "coordinates": [ 8.6820917, 50.1106444 ] } },
{ "type": "Feature", "properties": { "city": "Arrecife, Spain", "time_int": 1336 }, "geometry": { "type": "Point", "coordinates": [ -13.5499014, 28.9639681 ] } },
{ "type": "Feature", "properties": { "city": "Arrecife, Spain", "time_int": 1340 }, "geometry": { "type": "Point", "coordinates": [ -13.5499014, 28.9639681 ] } },
{ "type": "Feature", "properties": { "city": "Frankfurt, Germany", "time_int": 1341 }, "geometry": { "type": "Point", "coordinates": [ 8.6820917, 50.1106444 ] } },
{ "type": "Feature", "properties": { "city": "Frankfurt, Germany", "time_int": 1350 }, "geometry": { "type": "Point", "coordinates": [ 8.6820917, 50.1106444 ] } },
{ "type": "Feature", "properties": { "city": "Smithville, Tennessee", "time_int": 1351 }, "geometry": { "type": "Point", "coordinates": [ -85.8141516, 35.9606186 ] } },
{ "type": "Feature", "properties": { "city": "Smithville, Tennessee", "time_int": 1357 }, "geometry": { "type": "Point", "coordinates": [ -85.8141516, 35.9606186 ] } },
{ "type": "Feature", "properties": { "city": "Springfield, Ohio", "time_int": 1358 }, "geometry": { "type": "Point", "coordinates": [ -83.810138, 39.9234046 ] } },
{ "type": "Feature", "properties": { "city": "Springfield, Ohio", "time_int": 1367 }, "geometry": { "type": "Point", "coordinates": [ -83.810138, 39.9234046 ] } },
{ "type": "Feature", "properties": { "city": "Frankfurt, Germany", "time_int": 1368 }, "geometry": { "type": "Point", "coordinates": [ 8.6820917, 50.1106444 ] } },
{ "type": "Feature", "properties": { "city": "Frankfurt, Germany", "time_int": 1494 }, "geometry": { "type": "Point", "coordinates": [ 8.6820917, 50.1106444 ] } },
{ "type": "Feature", "properties": { "city": "Garmisch-Partenkirchen, Germany", "time_int": 1495 }, "geometry": { "type": "Point", "coordinates": [ 11.0962815, 47.4923741 ] } },
{ "type": "Feature", "properties": { "city": "Garmisch-Partenkirchen, Germany", "time_int": 1498 }, "geometry": { "type": "Point", "coordinates": [ 11.0962815, 47.4923741 ] } },
{ "type": "Feature", "properties": { "city": "Frankfurt, Germany", "time_int": 1499 }, "geometry": { "type": "Point", "coordinates": [ 8.6820917, 50.1106444 ] } },
{ "type": "Feature", "properties": { "city": "Frankfurt, Germany", "time_int": 1618 }, "geometry": { "type": "Point", "coordinates": [ 8.6820917, 50.1106444 ] } },
{ "type": "Feature", "properties": { "city": "Schinnen, Netherlands", "time_int": 1619 }, "geometry": { "type": "Point", "coordinates": [ 5.8861509, 50.9424885 ] } },
{ "type": "Feature", "properties": { "city": "Schinnen, Netherlands", "time_int": 1622 }, "geometry": { "type": "Point", "coordinates": [ 5.8861509, 50.9424885 ] } },
{ "type": "Feature", "properties": { "city": "Frankfurt, Germany", "time_int": 1623 }, "geometry": { "type": "Point", "coordinates": [ 8.6820917, 50.1106444 ] } },
{ "type": "Feature", "properties": { "city": "Frankfurt, Germany", "time_int": 1663 }, "geometry": { "type": "Point", "coordinates": [ 8.6820917, 50.1106444 ] } },
{ "type": "Feature", "properties": { "city": "Smithville, Tennessee", "time_int": 1664 }, "geometry": { "type": "Point", "coordinates": [ -85.8141516, 35.9606186 ] } },
{ "type": "Feature", "properties": { "city": "Smithville, Tennessee", "time_int": 1669 }, "geometry": { "type": "Point", "coordinates": [ -85.8141516, 35.9606186 ] } },
{ "type": "Feature", "properties": { "city": "Springfield, Ohio", "time_int": 1670 }, "geometry": { "type": "Point", "coordinates": [ -83.810138, 39.9234046 ] } },
{ "type": "Feature", "properties": { "city": "Springfield, Ohio", "time_int": 1682 }, "geometry": { "type": "Point", "coordinates": [ -83.810138, 39.9234046 ] } },
{ "type": "Feature", "properties": { "city": "Frankfurt, Germany", "time_int": 1683 }, "geometry": { "type": "Point", "coordinates": [ 8.6820917, 50.1106444 ] } },
{ "type": "Feature", "properties": { "city": "Frankfurt, Germany", "time_int": 1712 }, "geometry": { "type": "Point", "coordinates": [ 8.6820917, 50.1106444 ] } },
{ "type": "Feature", "properties": { "city": "Garmisch-Partenkirchen, Germany", "time_int": 1713 }, "geometry": { "type": "Point", "coordinates": [ 11.0962815, 47.4923741 ] } },
{ "type": "Feature", "properties": { "city": "Garmisch-Partenkirchen, Germany", "time_int": 1715 }, "geometry": { "type": "Point", "coordinates": [ 11.0962815, 47.4923741 ] } },
{ "type": "Feature", "properties": { "city": "Frankfurt, Germany", "time_int": 1716 }, "geometry": { "type": "Point", "coordinates": [ 8.6820917, 50.1106444 ] } },
{ "type": "Feature", "properties": { "city": "Frankfurt, Germany", "time_int": 1959 }, "geometry": { "type": "Point", "coordinates": [ 8.6820917, 50.1106444 ] } },
{ "type": "Feature", "properties": { "city": "Arlington, Virginia", "time_int": 1960 }, "geometry": { "type": "Point", "coordinates": [ -77.0841585, 38.8903961 ] } },
{ "type": "Feature", "properties": { "city": "Arlington, Virginia", "time_int": 1979 }, "geometry": { "type": "Point", "coordinates": [ -77.0841585, 38.8903961 ] } },
{ "type": "Feature", "properties": { "city": "Crossville, Tennessee", "time_int": 1980 }, "geometry": { "type": "Point", "coordinates": [ -85.0274835, 35.949684 ] } },
{ "type": "Feature", "properties": { "city": "Crossville, Tennessee", "time_int": 1983 }, "geometry": { "type": "Point", "coordinates": [ -85.0274835, 35.949684 ] } },
{ "type": "Feature", "properties": { "city": "Arlington, Virginia", "time_int": 1984 }, "geometry": { "type": "Point", "coordinates": [ -77.0841585, 38.8903961 ] } },
{ "type": "Feature", "properties": { "city": "Arlington, Virginia", "time_int": 2005 }, "geometry": { "type": "Point", "coordinates": [ -77.0841585, 38.8903961 ] } },
{ "type": "Feature", "properties": { "city": "Springfield, Ohio", "time_int": 2006 }, "geometry": { "type": "Point", "coordinates": [ -83.810138, 39.9234046 ] } },
{ "type": "Feature", "properties": { "city": "Springfield, Ohio", "time_int": 2034 }, "geometry": { "type": "Point", "coordinates": [ -83.810138, 39.9234046 ] } },
{ "type": "Feature", "properties": { "city": "Crossville, Tennessee", "time_int": 2035 }, "geometry": { "type": "Point", "coordinates": [ -85.0274835, 35.949684 ] } },
{ "type": "Feature", "properties": { "city": "Crossville, Tennessee", "time_int": 2050 }, "geometry": { "type": "Point", "coordinates": [ -85.0274835, 35.949684 ] } },
{ "type": "Feature", "properties": { "city": "Yerevan, Armenia", "time_int": 2051 }, "geometry": { "type": "Point", "coordinates": [ 44.5126174, 40.1776245 ] } },
{ "type": "Feature", "properties": { "city": "Yerevan, Armenia", "time_int": 2361 }, "geometry": { "type": "Point", "coordinates": [ 44.5126174, 40.1776245 ] } },
{ "type": "Feature", "properties": { "city": "Springfield, Ohio", "time_int": 2362 }, "geometry": { "type": "Point", "coordinates": [ -83.810138, 39.9234046 ] } },
{ "type": "Feature", "properties": { "city": "Springfield, Ohio", "time_int": 2373 }, "geometry": { "type": "Point", "coordinates": [ -83.810138, 39.9234046 ] } },
{ "type": "Feature", "properties": { "city": "Crossville, Tennessee", "time_int": 2374 }, "geometry": { "type": "Point", "coordinates": [ -85.0274835, 35.949684 ] } },
{ "type": "Feature", "properties": { "city": "Crossville, Tennessee", "time_int": 2379 }, "geometry": { "type": "Point", "coordinates": [ -85.0274835, 35.949684 ] } },
{ "type": "Feature", "properties": { "city": "Chattanooga, Tennessee", "time_int": 2380 }, "geometry": { "type": "Point", "coordinates": [ -85.3094883, 35.0457219 ] } },
{ "type": "Feature", "properties": { "city": "Crossville, Tennessee", "time_int": 2381 }, "geometry": { "type": "Point", "coordinates": [ -85.0274835, 35.949684 ] } },
{ "type": "Feature", "properties": { "city": "Crossville, Tennessee", "time_int": 2382 }, "geometry": { "type": "Point", "coordinates": [ -85.0274835, 35.949684 ] } },
{ "type": "Feature", "properties": { "city": "Yerevan, Armenia", "time_int": 2383 }, "geometry": { "type": "Point", "coordinates": [ 44.5126174, 40.1776245 ] } },
{ "type": "Feature", "properties": { "city": "Yerevan, Armenia", "time_int": 2499 }, "geometry": { "type": "Point", "coordinates": [ 44.5126174, 40.1776245 ] } },
{ "type": "Feature", "properties": { "city": "Dubai, United Arab Emirates", "time_int": 2500 }, "geometry": { "type": "Point", "coordinates": [ 55.2924914, 25.2653471 ] } },
{ "type": "Feature", "properties": { "city": "Dubai, United Arab Emirates", "time_int": 2504 }, "geometry": { "type": "Point", "coordinates": [ 55.2924914, 25.2653471 ] } },
{ "type": "Feature", "properties": { "city": "Yerevan, Armenia", "time_int": 2505 }, "geometry": { "type": "Point", "coordinates": [ 44.5126174, 40.1776245 ] } },
{ "type": "Feature", "properties": { "city": "Yerevan, Armenia", "time_int": 2577 }, "geometry": { "type": "Point", "coordinates": [ 44.5126174, 40.1776245 ] } },
{ "type": "Feature", "properties": { "city": "Crossville, Tennessee", "time_int": 2578 }, "geometry": { "type": "Point", "coordinates": [ -85.0274835, 35.949684 ] } },
{ "type": "Feature", "properties": { "city": "Crossville, Tennessee", "time_int": 2587 }, "geometry": { "type": "Point", "coordinates": [ -85.0274835, 35.949684 ] } },
{ "type": "Feature", "properties": { "city": "Reading, Michigan", "time_int": 2588 }, "geometry": { "type": "Point", "coordinates": [ -84.7480134, 41.8394928 ] } },
{ "type": "Feature", "properties": { "city": "Reading, Michigan", "time_int": 2591 }, "geometry": { "type": "Point", "coordinates": [ -84.7480134, 41.8394928 ] } },
{ "type": "Feature", "properties": { "city": "Springfield, Ohio", "time_int": 2592 }, "geometry": { "type": "Point", "coordinates": [ -83.810138, 39.9234046 ] } },
{ "type": "Feature", "properties": { "city": "Springfield, Ohio", "time_int": 2601 }, "geometry": { "type": "Point", "coordinates": [ -83.810138, 39.9234046 ] } },
{ "type": "Feature", "properties": { "city": "Yerevan, Armenia", "time_int": 2602 }, "geometry": { "type": "Point", "coordinates": [ 44.5126174, 40.1776245 ] } },
{ "type": "Feature", "properties": { "city": "Yerevan, Armenia", "time_int": 2719 }, "geometry": { "type": "Point", "coordinates": [ 44.5126174, 40.1776245 ] } },
{ "type": "Feature", "properties": { "city": "Tbilisi, Georgia (Country)", "time_int": 2720 }, "geometry": { "type": "Point", "coordinates": [ 44.8014495, 41.6934591 ] } },
{ "type": "Feature", "properties": { "city": "Tbilisi, Georgia (Country)", "time_int": 2723 }, "geometry": { "type": "Point", "coordinates": [ 44.8014495, 41.6934591 ] } },
{ "type": "Feature", "properties": { "city": "Yerevan, Armenia", "time_int": 2724 }, "geometry": { "type": "Point", "coordinates": [ 44.5126174, 40.1776245 ] } },
{ "type": "Feature", "properties": { "city": "Yerevan, Armenia", "time_int": 2940 }, "geometry": { "type": "Point", "coordinates": [ 44.5126174, 40.1776245 ] } },
{ "type": "Feature", "properties": { "city": "Crossville, Tennessee", "time_int": 2941 }, "geometry": { "type": "Point", "coordinates": [ -85.0274835, 35.949684 ] } },
{ "type": "Feature", "properties": { "city": "Crossville, Tennessee", "time_int": 2952 }, "geometry": { "type": "Point", "coordinates": [ -85.0274835, 35.949684 ] } },
{ "type": "Feature", "properties": { "city": "Reading, Michigan", "time_int": 2953 }, "geometry": { "type": "Point", "coordinates": [ -84.7480134, 41.8394928 ] } },
{ "type": "Feature", "properties": { "city": "Reading, Michigan", "time_int": 2956 }, "geometry": { "type": "Point", "coordinates": [ -84.7480134, 41.8394928 ] } },
{ "type": "Feature", "properties": { "city": "Springfield, Ohio", "time_int": 2957 }, "geometry": { "type": "Point", "coordinates": [ -83.810138, 39.9234046 ] } },
{ "type": "Feature", "properties": { "city": "Springfield, Ohio", "time_int": 2970 }, "geometry": { "type": "Point", "coordinates": [ -83.810138, 39.9234046 ] } },
{ "type": "Feature", "properties": { "city": "Westerville, Ohio", "time_int": 2971 }, "geometry": { "type": "Point", "coordinates": [ -82.9295287, 40.126139 ] } },
{ "type": "Feature", "properties": { "city": "Westerville, Ohio", "time_int": 2972 }, "geometry": { "type": "Point", "coordinates": [ -82.9295287, 40.126139 ] } },
{ "type": "Feature", "properties": { "city": "Springfield, Ohio", "time_int": 2973 }, "geometry": { "type": "Point", "coordinates": [ -83.810138, 39.9234046 ] } },
{ "type": "Feature", "properties": { "city": "Springfield, Ohio", "time_int": 2975 }, "geometry": { "type": "Point", "coordinates": [ -83.810138, 39.9234046 ] } },
{ "type": "Feature", "properties": { "city": "Springfield, Virginia", "time_int": 2976 }, "geometry": { "type": "Point", "coordinates": [ -77.180701931066807, 38.7767435 ] } },
{ "type": "Feature", "properties": { "city": "Springfield, Virginia", "time_int": 3003 }, "geometry": { "type": "Point", "coordinates": [ -77.180701931066807, 38.7767435 ] } },
{ "type": "Feature", "properties": { "city": "Kitty Hawk, North Carolina", "time_int": 3004 }, "geometry": { "type": "Point", "coordinates": [ -75.6935448, 36.0664318 ] } },
{ "type": "Feature", "properties": { "city": "Kitty Hawk, North Carolina", "time_int": 3010 }, "geometry": { "type": "Point", "coordinates": [ -75.6935448, 36.0664318 ] } },
{ "type": "Feature", "properties": { "city": "Springfield, Virginia", "time_int": 3011 }, "geometry": { "type": "Point", "coordinates": [ -77.180701931066807, 38.7767435 ] } },
{ "type": "Feature", "properties": { "city": "Springfield, Virginia", "time_int": 3064 }, "geometry": { "type": "Point", "coordinates": [ -77.180701931066807, 38.7767435 ] } },
{ "type": "Feature", "properties": { "city": "Washington, District of Columbia", "time_int": 3065 }, "geometry": { "type": "Point", "coordinates": [ -77.0365427, 38.8950368 ] } },
{ "type": "Feature", "properties": { "city": "Springfield, Virginia", "time_int": 3066 }, "geometry": { "type": "Point", "coordinates": [ -77.180701931066807, 38.7767435 ] } },
{ "type": "Feature", "properties": { "city": "Springfield, Virginia", "time_int": 3097 }, "geometry": { "type": "Point", "coordinates": [ -77.180701931066807, 38.7767435 ] } },
{ "type": "Feature", "properties": { "city": "Springfield, Ohio", "time_int": 3098 }, "geometry": { "type": "Point", "coordinates": [ -83.810138, 39.9234046 ] } },
{ "type": "Feature", "properties": { "city": "Springfield, Ohio", "time_int": 3101 }, "geometry": { "type": "Point", "coordinates": [ -83.810138, 39.9234046 ] } },
{ "type": "Feature", "properties": { "city": "Springfield, Virginia", "time_int": 3102 }, "geometry": { "type": "Point", "coordinates": [ -77.180701931066807, 38.7767435 ] } },
{ "type": "Feature", "properties": { "city": "Springfield, Virginia", "time_int": 3316 }, "geometry": { "type": "Point", "coordinates": [ -77.180701931066807, 38.7767435 ] } },
{ "type": "Feature", "properties": { "city": "Reading, Michigan", "time_int": 3317 }, "geometry": { "type": "Point", "coordinates": [ -84.7480134, 41.8394928 ] } },
{ "type": "Feature", "properties": { "city": "Reading, Michigan", "time_int": 3321 }, "geometry": { "type": "Point", "coordinates": [ -84.7480134, 41.8394928 ] } },
{ "type": "Feature", "properties": { "city": "Springfield, Virginia", "time_int": 3322 }, "geometry": { "type": "Point", "coordinates": [ -77.180701931066807, 38.7767435 ] } },
{ "type": "Feature", "properties": { "city": "Springfield, Virginia", "time_int": 3344 }, "geometry": { "type": "Point", "coordinates": [ -77.180701931066807, 38.7767435 ] } },
{ "type": "Feature", "properties": { "city": "Patuxent River, Maryland", "time_int": 3345 }, "geometry": { "type": "Point", "coordinates": [ -76.632414580002376, 38.45513645 ] } },
{ "type": "Feature", "properties": { "city": "Patuxent River, Maryland", "time_int": 3346 }, "geometry": { "type": "Point", "coordinates": [ -76.632414580002376, 38.45513645 ] } },
{ "type": "Feature", "properties": { "city": "Springfield, Virginia", "time_int": 3347 }, "geometry": { "type": "Point", "coordinates": [ -77.180701931066807, 38.7767435 ] } },
{ "type": "Feature", "properties": { "city": "Springfield, Virginia", "time_int": 3353 }, "geometry": { "type": "Point", "coordinates": [ -77.180701931066807, 38.7767435 ] } },
{ "type": "Feature", "properties": { "city": "Springfield, Ohio", "time_int": 3354 }, "geometry": { "type": "Point", "coordinates": [ -83.810138, 39.9234046 ] } },
{ "type": "Feature", "properties": { "city": "Springfield, Ohio", "time_int": 3355 }, "geometry": { "type": "Point", "coordinates": [ -83.810138, 39.9234046 ] } },
{ "type": "Feature", "properties": { "city": "Chicago, Illinois", "time_int": 3356 }, "geometry": { "type": "Point", "coordinates": [ -87.6244212, 41.8755616 ] } },
{ "type": "Feature", "properties": { "city": "Seymour, Wisconsin", "time_int": 3357 }, "geometry": { "type": "Point", "coordinates": [ -88.3303798, 44.514988 ] } },
{ "type": "Feature", "properties": { "city": "Seymour, Wisconsin", "time_int": 3359 }, "geometry": { "type": "Point", "coordinates": [ -88.3303798, 44.514988 ] } },
{ "type": "Feature", "properties": { "city": "Appleton, Wisconsin", "time_int": 3360 }, "geometry": { "type": "Point", "coordinates": [ -88.4069744, 44.2613967 ] } },
{ "type": "Feature", "properties": { "city": "Oshkosh, Wisconsin", "time_int": 3361 }, "geometry": { "type": "Point", "coordinates": [ -88.5408574, 44.0206919 ] } },
{ "type": "Feature", "properties": { "city": "Detroit, Michigan", "time_int": 3362 }, "geometry": { "type": "Point", "coordinates": [ -83.0466403, 42.3315509 ] } },
{ "type": "Feature", "properties": { "city": "Rochester Hills, Michigan", "time_int": 3363 }, "geometry": { "type": "Point", "coordinates": [ -83.1499322, 42.6583661 ] } },
{ "type": "Feature", "properties": { "city": "Rochester Hills, Michigan", "time_int": 3364 }, "geometry": { "type": "Point", "coordinates": [ -83.1499322, 42.6583661 ] } },
{ "type": "Feature", "properties": { "city": "Springfield, Virginia", "time_int": 3365 }, "geometry": { "type": "Point", "coordinates": [ -77.180701931066807, 38.7767435 ] } },
{ "type": "Feature", "properties": { "city": "Springfield, Virginia", "time_int": 3374 }, "geometry": { "type": "Point", "coordinates": [ -77.180701931066807, 38.7767435 ] } },
{ "type": "Feature", "properties": { "city": "Kitty Hawk, North Carolina", "time_int": 3375 }, "geometry": { "type": "Point", "coordinates": [ -75.6935448, 36.0664318 ] } },
{ "type": "Feature", "properties": { "city": "Kitty Hawk, North Carolina", "time_int": 3381 }, "geometry": { "type": "Point", "coordinates": [ -75.6935448, 36.0664318 ] } },
{ "type": "Feature", "properties": { "city": "Springfield, Virginia", "time_int": 3382 }, "geometry": { "type": "Point", "coordinates": [ -77.180701931066807, 38.7767435 ] } },
{ "type": "Feature", "properties": { "city": "Springfield, Virginia", "time_int": 3461 }, "geometry": { "type": "Point", "coordinates": [ -77.180701931066807, 38.7767435 ] } },
{ "type": "Feature", "properties": { "city": "Crossville, Tennessee", "time_int": 3462 }, "geometry": { "type": "Point", "coordinates": [ -85.0274835, 35.949684 ] } },
{ "type": "Feature", "properties": { "city": "Crossville, Tennessee", "time_int": 3465 }, "geometry": { "type": "Point", "coordinates": [ -85.0274835, 35.949684 ] } },
{ "type": "Feature", "properties": { "city": "Springfield, Virginia", "time_int": 3466 }, "geometry": { "type": "Point", "coordinates": [ -77.180701931066807, 38.7767435 ] } },
{ "type": "Feature", "properties": { "city": "Springfield, Virginia", "time_int": 3491 }, "geometry": { "type": "Point", "coordinates": [ -77.180701931066807, 38.7767435 ] } },
{ "type": "Feature", "properties": { "city": "Springfield, Ohio", "time_int": 3492 }, "geometry": { "type": "Point", "coordinates": [ -83.810138, 39.9234046 ] } },
{ "type": "Feature", "properties": { "city": "Springfield, Ohio", "time_int": 3495 }, "geometry": { "type": "Point", "coordinates": [ -83.810138, 39.9234046 ] } },
{ "type": "Feature", "properties": { "city": "Springfield, Virginia", "time_int": 3496 }, "geometry": { "type": "Point", "coordinates": [ -77.180701931066807, 38.7767435 ] } },
{ "type": "Feature", "properties": { "city": "Springfield, Virginia", "time_int": 3666 }, "geometry": { "type": "Point", "coordinates": [ -77.180701931066807, 38.7767435 ] } },
{ "type": "Feature", "properties": { "city": "Baltimore, Maryland", "time_int": 3667 }, "geometry": { "type": "Point", "coordinates": [ -76.610759, 39.2908816 ] } },
{ "type": "Feature", "properties": { "city": "Springfield, Virginia", "time_int": 3668 }, "geometry": { "type": "Point", "coordinates": [ -77.180701931066807, 38.7767435 ] } },
{ "type": "Feature", "properties": { "city": "Springfield, Virginia", "time_int": 3681 }, "geometry": { "type": "Point", "coordinates": [ -77.180701931066807, 38.7767435 ] } },
{ "type": "Feature", "properties": { "city": "Reading, Michigan", "time_int": 3682 }, "geometry": { "type": "Point", "coordinates": [ -84.7480134, 41.8394928 ] } },
{ "type": "Feature", "properties": { "city": "Reading, Michigan", "time_int": 3685 }, "geometry": { "type": "Point", "coordinates": [ -84.7480134, 41.8394928 ] } },
{ "type": "Feature", "properties": { "city": "Springfield, Virginia", "time_int": 3686 }, "geometry": { "type": "Point", "coordinates": [ -77.180701931066807, 38.7767435 ] } },
{ "type": "Feature", "properties": { "city": "Springfield, Virginia", "time_int": 3737 }, "geometry": { "type": "Point", "coordinates": [ -77.180701931066807, 38.7767435 ] } },
{ "type": "Feature", "properties": { "city": "New York City, New York", "time_int": 3738 }, "geometry": { "type": "Point", "coordinates": [ -73.773878008965397, 40.76639995 ] } },
{ "type": "Feature", "properties": { "city": "New York City, New York", "time_int": 3741 }, "geometry": { "type": "Point", "coordinates": [ -73.773878008965397, 40.76639995 ] } },
{ "type": "Feature", "properties": { "city": "Springfield, Virginia", "time_int": 3742 }, "geometry": { "type": "Point", "coordinates": [ -77.180701931066807, 38.7767435 ] } },
{ "type": "Feature", "properties": { "city": "Springfield, Virginia", "time_int": 3743 }, "geometry": { "type": "Point", "coordinates": [ -77.180701931066807, 38.7767435 ] } },
{ "type": "Feature", "properties": { "city": "Washington, District of Columbia", "time_int": 3744 }, "geometry": { "type": "Point", "coordinates": [ -77.0365427, 38.8950368 ] } },
{ "type": "Feature", "properties": { "city": "Springfield, Virginia", "time_int": 3745 }, "geometry": { "type": "Point", "coordinates": [ -77.180701931066807, 38.7767435 ] } },
{ "type": "Feature", "properties": { "city": "Springfield, Virginia", "time_int": 3824 }, "geometry": { "type": "Point", "coordinates": [ -77.180701931066807, 38.7767435 ] } },
{ "type": "Feature", "properties": { "city": "Crossville, Tennessee", "time_int": 3825 }, "geometry": { "type": "Point", "coordinates": [ -85.0274835, 35.949684 ] } },
{ "type": "Feature", "properties": { "city": "Crossville, Tennessee", "time_int": 3828 }, "geometry": { "type": "Point", "coordinates": [ -85.0274835, 35.949684 ] } },
{ "type": "Feature", "properties": { "city": "Springfield, Virginia", "time_int": 3829 }, "geometry": { "type": "Point", "coordinates": [ -77.180701931066807, 38.7767435 ] } },
{ "type": "Feature", "properties": { "city": "Springfield, Virginia", "time_int": 3856 }, "geometry": { "type": "Point", "coordinates": [ -77.180701931066807, 38.7767435 ] } },
{ "type": "Feature", "properties": { "city": "Springfield, Ohio", "time_int": 3857 }, "geometry": { "type": "Point", "coordinates": [ -83.810138, 39.9234046 ] } },
{ "type": "Feature", "properties": { "city": "Springfield, Ohio", "time_int": 3860 }, "geometry": { "type": "Point", "coordinates": [ -83.810138, 39.9234046 ] } },
{ "type": "Feature", "properties": { "city": "Springfield, Virginia", "time_int": 3861 }, "geometry": { "type": "Point", "coordinates": [ -77.180701931066807, 38.7767435 ] } },
{ "type": "Feature", "properties": { "city": "Springfield, Virginia", "time_int": 3887 }, "geometry": { "type": "Point", "coordinates": [ -77.180701931066807, 38.7767435 ] } },
{ "type": "Feature", "properties": { "city": "Orlando, Florida", "time_int": 3888 }, "geometry": { "type": "Point", "coordinates": [ -81.3790304, 28.5421109 ] } },
{ "type": "Feature", "properties": { "city": "Orlando, Florida", "time_int": 3892 }, "geometry": { "type": "Point", "coordinates": [ -81.3790304, 28.5421109 ] } },
{ "type": "Feature", "properties": { "city": "Springfield, Virginia", "time_int": 3893 }, "geometry": { "type": "Point", "coordinates": [ -77.180701931066807, 38.7767435 ] } },
{ "type": "Feature", "properties": { "city": "Springfield, Virginia", "time_int": 4015 }, "geometry": { "type": "Point", "coordinates": [ -77.180701931066807, 38.7767435 ] } },
{ "type": "Feature", "properties": { "city": "Dallas, Texas", "time_int": 4016 }, "geometry": { "type": "Point", "coordinates": [ -96.7968559, 32.7762719 ] } },
{ "type": "Feature", "properties": { "city": "Dallas, Texas", "time_int": 4019 }, "geometry": { "type": "Point", "coordinates": [ -96.7968559, 32.7762719 ] } },
{ "type": "Feature", "properties": { "city": "Springfield, Virginia", "time_int": 4020 }, "geometry": { "type": "Point", "coordinates": [ -77.180701931066807, 38.7767435 ] } },
{ "type": "Feature", "properties": { "city": "Springfield, Virginia", "time_int": 4049 }, "geometry": { "type": "Point", "coordinates": [ -77.180701931066807, 38.7767435 ] } },
{ "type": "Feature", "properties": { "city": "Reading, Michigan", "time_int": 4050 }, "geometry": { "type": "Point", "coordinates": [ -84.7480134, 41.8394928 ] } },
{ "type": "Feature", "properties": { "city": "Reading, Michigan", "time_int": 4053 }, "geometry": { "type": "Point", "coordinates": [ -84.7480134, 41.8394928 ] } },
{ "type": "Feature", "properties": { "city": "Springfield, Virginia", "time_int": 4054 }, "geometry": { "type": "Point", "coordinates": [ -77.180701931066807, 38.7767435 ] } },
{ "type": "Feature", "properties": { "city": "Springfield, Virginia", "time_int": 4064 }, "geometry": { "type": "Point", "coordinates": [ -77.180701931066807, 38.7767435 ] } },
{ "type": "Feature", "properties": { "city": "Farmington Hills, Michigan", "time_int": 4065 }, "geometry": { "type": "Point", "coordinates": [ -83.3771553, 42.4853125 ] } },
{ "type": "Feature", "properties": { "city": "Farmington Hills, Michigan", "time_int": 4066 }, "geometry": { "type": "Point", "coordinates": [ -83.3771553, 42.4853125 ] } },
{ "type": "Feature", "properties": { "city": "Springfield, Ohio", "time_int": 4067 }, "geometry": { "type": "Point", "coordinates": [ -83.810138, 39.9234046 ] } },
{ "type": "Feature", "properties": { "city": "Springfield, Ohio", "time_int": 4068 }, "geometry": { "type": "Point", "coordinates": [ -83.810138, 39.9234046 ] } },
{ "type": "Feature", "properties": { "city": "Springfield, Virginia", "time_int": 4069 }, "geometry": { "type": "Point", "coordinates": [ -77.180701931066807, 38.7767435 ] } },
{ "type": "Feature", "properties": { "city": "Springfield, Virginia", "time_int": 4072 }, "geometry": { "type": "Point", "coordinates": [ -77.180701931066807, 38.7767435 ] } },
{ "type": "Feature", "properties": { "city": "Crossville, Tennessee", "time_int": 4073 }, "geometry": { "type": "Point", "coordinates": [ -85.0274835, 35.949684 ] } },
{ "type": "Feature", "properties": { "city": "Crossville, Tennessee", "time_int": 4078 }, "geometry": { "type": "Point", "coordinates": [ -85.0274835, 35.949684 ] } },
{ "type": "Feature", "properties": { "city": "Springfield, Virginia", "time_int": 4079 }, "geometry": { "type": "Point", "coordinates": [ -77.180701931066807, 38.7767435 ] } },
{ "type": "Feature", "properties": { "city": "Springfield, Virginia", "time_int": 4085 }, "geometry": { "type": "Point", "coordinates": [ -77.180701931066807, 38.7767435 ] } },
{ "type": "Feature", "properties": { "city": "Garmisch-Partenkirchen, Germany", "time_int": 4086 }, "geometry": { "type": "Point", "coordinates": [ 11.0962815, 47.4923741 ] } },
{ "type": "Feature", "properties": { "city": "Garmisch-Partenkirchen, Germany", "time_int": 4106 }, "geometry": { "type": "Point", "coordinates": [ 11.0962815, 47.4923741 ] } },
{ "type": "Feature", "properties": { "city": "Munich, Germany", "time_int": 4107 }, "geometry": { "type": "Point", "coordinates": [ 11.5753822, 48.1371079 ] } },
{ "type": "Feature", "properties": { "city": "Garmisch-Partenkirchen, Germany", "time_int": 4108 }, "geometry": { "type": "Point", "coordinates": [ 11.0962815, 47.4923741 ] } },
{ "type": "Feature", "properties": { "city": "Garmisch-Partenkirchen, Germany", "time_int": 4142 }, "geometry": { "type": "Point", "coordinates": [ 11.0962815, 47.4923741 ] } },
{ "type": "Feature", "properties": { "city": "Merano, Italy", "time_int": 4143 }, "geometry": { "type": "Point", "coordinates": [ 11.1594185, 46.6695547 ] } },
{ "type": "Feature", "properties": { "city": "Garmisch-Partenkirchen, Germany", "time_int": 4144 }, "geometry": { "type": "Point", "coordinates": [ 11.0962815, 47.4923741 ] } },
{ "type": "Feature", "properties": { "city": "Garmisch-Partenkirchen, Germany", "time_int": 4156 }, "geometry": { "type": "Point", "coordinates": [ 11.0962815, 47.4923741 ] } },
{ "type": "Feature", "properties": { "city": "Gunzburg, Germany", "time_int": 4157 }, "geometry": { "type": "Point", "coordinates": [ 10.2785509, 48.4539028 ] } },
{ "type": "Feature", "properties": { "city": "Garmisch-Partenkirchen, Germany", "time_int": 4158 }, "geometry": { "type": "Point", "coordinates": [ 11.0962815, 47.4923741 ] } },
{ "type": "Feature", "properties": { "city": "Garmisch-Partenkirchen, Germany", "time_int": 4164 }, "geometry": { "type": "Point", "coordinates": [ 11.0962815, 47.4923741 ] } },
{ "type": "Feature", "properties": { "city": "Bolzano, Italy", "time_int": 4165 }, "geometry": { "type": "Point", "coordinates": [ 11.229637264169462, 46.65594215 ] } },
{ "type": "Feature", "properties": { "city": "Garmisch-Partenkirchen, Germany", "time_int": 4166 }, "geometry": { "type": "Point", "coordinates": [ 11.0962815, 47.4923741 ] } },
{ "type": "Feature", "properties": { "city": "Garmisch-Partenkirchen, Germany", "time_int": 4195 }, "geometry": { "type": "Point", "coordinates": [ 11.0962815, 47.4923741 ] } },
{ "type": "Feature", "properties": { "city": "Paris, France", "time_int": 4196 }, "geometry": { "type": "Point", "coordinates": [ 2.320041021720077, 48.8588897 ] } },
{ "type": "Feature", "properties": { "city": "Paris, France", "time_int": 4200 }, "geometry": { "type": "Point", "coordinates": [ 2.320041021720077, 48.8588897 ] } },
{ "type": "Feature", "properties": { "city": "Garmisch-Partenkirchen, Germany", "time_int": 4201 }, "geometry": { "type": "Point", "coordinates": [ 11.0962815, 47.4923741 ] } },
{ "type": "Feature", "properties": { "city": "Garmisch-Partenkirchen, Germany", "time_int": 4224 }, "geometry": { "type": "Point", "coordinates": [ 11.0962815, 47.4923741 ] } },
{ "type": "Feature", "properties": { "city": "Torremolinos, Spain", "time_int": 4225 }, "geometry": { "type": "Point", "coordinates": [ -4.4995448, 36.6242841 ] } },
{ "type": "Feature", "properties": { "city": "Ronda, Spain", "time_int": 4226 }, "geometry": { "type": "Point", "coordinates": [ -5.1665916, 36.7421339 ] } },
{ "type": "Feature", "properties": { "city": "Malaga, Spain", "time_int": 4227 }, "geometry": { "type": "Point", "coordinates": [ -4.4216366, 36.7213028 ] } },
{ "type": "Feature", "properties": { "city": "Gibraltar, Gibraltar", "time_int": 4228 }, "geometry": { "type": "Point", "coordinates": [ -5.3541295, 36.140807 ] } },
{ "type": "Feature", "properties": { "city": "Torremolinos, Spain", "time_int": 4229 }, "geometry": { "type": "Point", "coordinates": [ -4.4995448, 36.6242841 ] } },
{ "type": "Feature", "properties": { "city": "Granada, Spain", "time_int": 4230 }, "geometry": { "type": "Point", "coordinates": [ -3.5995337, 37.1734995 ] } },
{ "type": "Feature", "properties": { "city": "Torremolinos, Spain", "time_int": 4231 }, "geometry": { "type": "Point", "coordinates": [ -4.4995448, 36.6242841 ] } },
{ "type": "Feature", "properties": { "city": "Torremolinos, Spain", "time_int": 4232 }, "geometry": { "type": "Point", "coordinates": [ -4.4995448, 36.6242841 ] } },
{ "type": "Feature", "properties": { "city": "Garmisch-Partenkirchen, Germany", "time_int": 4233 }, "geometry": { "type": "Point", "coordinates": [ 11.0962815, 47.4923741 ] } },
{ "type": "Feature", "properties": { "city": "Garmisch-Partenkirchen, Germany", "time_int": 4332 }, "geometry": { "type": "Point", "coordinates": [ 11.0962815, 47.4923741 ] } },
{ "type": "Feature", "properties": { "city": "Hamburg, Germany", "time_int": 4333 }, "geometry": { "type": "Point", "coordinates": [ 10.000654, 53.550341 ] } },
{ "type": "Feature", "properties": { "city": "Hamburg, Germany", "time_int": 4334 }, "geometry": { "type": "Point", "coordinates": [ 10.000654, 53.550341 ] } },
{ "type": "Feature", "properties": { "city": "Garmisch-Partenkirchen, Germany", "time_int": 4335 }, "geometry": { "type": "Point", "coordinates": [ 11.0962815, 47.4923741 ] } },
{ "type": "Feature", "properties": { "city": "Garmisch-Partenkirchen, Germany", "time_int": 4366 }, "geometry": { "type": "Point", "coordinates": [ 11.0962815, 47.4923741 ] } },
{ "type": "Feature", "properties": { "city": "Stuttgart, Germany", "time_int": 4367 }, "geometry": { "type": "Point", "coordinates": [ 9.1800132, 48.7784485 ] } },
{ "type": "Feature", "properties": { "city": "Stuttgart, Germany", "time_int": 4368 }, "geometry": { "type": "Point", "coordinates": [ 9.1800132, 48.7784485 ] } },
{ "type": "Feature", "properties": { "city": "Garmisch-Partenkirchen, Germany", "time_int": 4369 }, "geometry": { "type": "Point", "coordinates": [ 11.0962815, 47.4923741 ] } },
{ "type": "Feature", "properties": { "city": "Garmisch-Partenkirchen, Germany", "time_int": 4405 }, "geometry": { "type": "Point", "coordinates": [ 11.0962815, 47.4923741 ] } },
{ "type": "Feature", "properties": { "city": "Herreninsel, Germany", "time_int": 4406 }, "geometry": { "type": "Point", "coordinates": [ 12.397680772813034, 47.8628452 ] } },
{ "type": "Feature", "properties": { "city": "Berchtesgaden, Germany", "time_int": 4407 }, "geometry": { "type": "Point", "coordinates": [ 13.0021634, 47.63108 ] } },
{ "type": "Feature", "properties": { "city": "Garmisch-Partenkirchen, Germany", "time_int": 4408 }, "geometry": { "type": "Point", "coordinates": [ 11.0962815, 47.4923741 ] } },
{ "type": "Feature", "properties": { "city": "Garmisch-Partenkirchen, Germany", "time_int": 4423 }, "geometry": { "type": "Point", "coordinates": [ 11.0962815, 47.4923741 ] } },
{ "type": "Feature", "properties": { "city": "Pisa, Italy", "time_int": 4424 }, "geometry": { "type": "Point", "coordinates": [ 10.4018624, 43.7159395 ] } },
{ "type": "Feature", "properties": { "city": "Pisa, Italy", "time_int": 4430 }, "geometry": { "type": "Point", "coordinates": [ 10.4018624, 43.7159395 ] } },
{ "type": "Feature", "properties": { "city": "Garmisch-Partenkirchen, Germany", "time_int": 4431 }, "geometry": { "type": "Point", "coordinates": [ 11.0962815, 47.4923741 ] } },
{ "type": "Feature", "properties": { "city": "Garmisch-Partenkirchen, Germany", "time_int": 4438 }, "geometry": { "type": "Point", "coordinates": [ 11.0962815, 47.4923741 ] } },
{ "type": "Feature", "properties": { "city": "Sirmione, Italy", "time_int": 4439 }, "geometry": { "type": "Point", "coordinates": [ 10.6078237, 45.4688494 ] } },
{ "type": "Feature", "properties": { "city": "Sirmione, Italy", "time_int": 4441 }, "geometry": { "type": "Point", "coordinates": [ 10.6078237, 45.4688494 ] } },
{ "type": "Feature", "properties": { "city": "Verone, Italy", "time_int": 4442 }, "geometry": { "type": "Point", "coordinates": [ 10.9924122, 45.4384958 ] } },
{ "type": "Feature", "properties": { "city": "Sirmione, Italy", "time_int": 4443 }, "geometry": { "type": "Point", "coordinates": [ 10.6078237, 45.4688494 ] } },
{ "type": "Feature", "properties": { "city": "Sirmione, Italy", "time_int": 4444 }, "geometry": { "type": "Point", "coordinates": [ 10.6078237, 45.4688494 ] } },
{ "type": "Feature", "properties": { "city": "Garmisch-Partenkirchen, Germany", "time_int": 4445 }, "geometry": { "type": "Point", "coordinates": [ 11.0962815, 47.4923741 ] } },
{ "type": "Feature", "properties": { "city": "Garmisch-Partenkirchen, Germany", "time_int": 4560 }, "geometry": { "type": "Point", "coordinates": [ 11.0962815, 47.4923741 ] } },
{ "type": "Feature", "properties": { "city": "Rome, Italy", "time_int": 4561 }, "geometry": { "type": "Point", "coordinates": [ 12.4829321, 41.8933203 ] } },
{ "type": "Feature", "properties": { "city": "Rome, Italy", "time_int": 4565 }, "geometry": { "type": "Point", "coordinates": [ 12.4829321, 41.8933203 ] } },
{ "type": "Feature", "properties": { "city": "Garmisch-Partenkirchen, Germany", "time_int": 4566 }, "geometry": { "type": "Point", "coordinates": [ 11.0962815, 47.4923741 ] } },
{ "type": "Feature", "properties": { "city": "Garmisch-Partenkirchen, Germany", "time_int": 4588 }, "geometry": { "type": "Point", "coordinates": [ 11.0962815, 47.4923741 ] } },
{ "type": "Feature", "properties": { "city": "Berwang-Bichlbach, Austria", "time_int": 4589 }, "geometry": { "type": "Point", "coordinates": [ 10.741732415556411, 47.4131478 ] } },
{ "type": "Feature", "properties": { "city": "Garmisch-Partenkirchen, Germany", "time_int": 4590 }, "geometry": { "type": "Point", "coordinates": [ 11.0962815, 47.4923741 ] } },
{ "type": "Feature", "properties": { "city": "Garmisch-Partenkirchen, Germany", "time_int": 4610 }, "geometry": { "type": "Point", "coordinates": [ 11.0962815, 47.4923741 ] } },
{ "type": "Feature", "properties": { "city": "Madonna di Campiglio, Italy", "time_int": 4611 }, "geometry": { "type": "Point", "coordinates": [ 10.8270157, 46.2269942 ] } },
{ "type": "Feature", "properties": { "city": "Madonna di Campiglio, Italy", "time_int": 4614 }, "geometry": { "type": "Point", "coordinates": [ 10.8270157, 46.2269942 ] } },
{ "type": "Feature", "properties": { "city": "Garmisch-Partenkirchen, Germany", "time_int": 4615 }, "geometry": { "type": "Point", "coordinates": [ 11.0962815, 47.4923741 ] } },
{ "type": "Feature", "properties": { "city": "Garmisch-Partenkirchen, Germany", "time_int": 4645 }, "geometry": { "type": "Point", "coordinates": [ 11.0962815, 47.4923741 ] } },
{ "type": "Feature", "properties": { "city": "Kaiserslautern, Germany", "time_int": 4646 }, "geometry": { "type": "Point", "coordinates": [ 7.7689951, 49.4432174 ] } },
{ "type": "Feature", "properties": { "city": "Kaiserslautern, Germany", "time_int": 4647 }, "geometry": { "type": "Point", "coordinates": [ 7.7689951, 49.4432174 ] } },
{ "type": "Feature", "properties": { "city": "Garmisch-Partenkirchen, Germany", "time_int": 4648 }, "geometry": { "type": "Point", "coordinates": [ 11.0962815, 47.4923741 ] } },
{ "type": "Feature", "properties": { "city": "Garmisch-Partenkirchen, Germany", "time_int": 4666 }, "geometry": { "type": "Point", "coordinates": [ 11.0962815, 47.4923741 ] } },
{ "type": "Feature", "properties": { "city": "Vicenza, Italy", "time_int": 4667 }, "geometry": { "type": "Point", "coordinates": [ 11.406354256602491, 45.63485905 ] } },
{ "type": "Feature", "properties": { "city": "Venice, Italy", "time_int": 4668 }, "geometry": { "type": "Point", "coordinates": [ 12.3345898, 45.4371908 ] } },
{ "type": "Feature", "properties": { "city": "Garmisch-Partenkirchen, Germany", "time_int": 4669 }, "geometry": { "type": "Point", "coordinates": [ 11.0962815, 47.4923741 ] } },
{ "type": "Feature", "properties": { "city": "Garmisch-Partenkirchen, Germany", "time_int": 4679 }, "geometry": { "type": "Point", "coordinates": [ 11.0962815, 47.4923741 ] } },
{ "type": "Feature", "properties": { "city": "Budapest, Hungary", "time_int": 4680 }, "geometry": { "type": "Point", "coordinates": [ 19.0403594, 47.4979937 ] } },
{ "type": "Feature", "properties": { "city": "Budapest, Hungary", "time_int": 4683 }, "geometry": { "type": "Point", "coordinates": [ 19.0403594, 47.4979937 ] } },
{ "type": "Feature", "properties": { "city": "Garmisch-Partenkirchen, Germany", "time_int": 4684 }, "geometry": { "type": "Point", "coordinates": [ 11.0962815, 47.4923741 ] } },
{ "type": "Feature", "properties": { "city": "Garmisch-Partenkirchen, Germany", "time_int": 4695 }, "geometry": { "type": "Point", "coordinates": [ 11.0962815, 47.4923741 ] } },
{ "type": "Feature", "properties": { "city": "Edinburgh, United Kingdom", "time_int": 4696 }, "geometry": { "type": "Point", "coordinates": [ -3.1883749, 55.9533456 ] } },
{ "type": "Feature", "properties": { "city": "Edinburgh, United Kingdom", "time_int": 4703 }, "geometry": { "type": "Point", "coordinates": [ -3.1883749, 55.9533456 ] } },
{ "type": "Feature", "properties": { "city": "Bruges, Belgium", "time_int": 4704 }, "geometry": { "type": "Point", "coordinates": [ 3.226772, 51.2085526 ] } },
{ "type": "Feature", "properties": { "city": "Garmisch-Partenkirchen, Germany", "time_int": 4705 }, "geometry": { "type": "Point", "coordinates": [ 11.0962815, 47.4923741 ] } },
{ "type": "Feature", "properties": { "city": "Garmisch-Partenkirchen, Germany", "time_int": 4743 }, "geometry": { "type": "Point", "coordinates": [ 11.0962815, 47.4923741 ] } },
{ "type": "Feature", "properties": { "city": "Merano, Italy", "time_int": 4744 }, "geometry": { "type": "Point", "coordinates": [ 11.1594185, 46.6695547 ] } },
{ "type": "Feature", "properties": { "city": "Merano, Italy", "time_int": 4746 }, "geometry": { "type": "Point", "coordinates": [ 11.1594185, 46.6695547 ] } },
{ "type": "Feature", "properties": { "city": "Garmisch-Partenkirchen, Germany", "time_int": 4747 }, "geometry": { "type": "Point", "coordinates": [ 11.0962815, 47.4923741 ] } },
{ "type": "Feature", "properties": { "city": "Garmisch-Partenkirchen, Germany", "time_int": 4791 }, "geometry": { "type": "Point", "coordinates": [ 11.0962815, 47.4923741 ] } },
{ "type": "Feature", "properties": { "city": "Atlanta, Georgia (State)", "time_int": 4792 }, "geometry": { "type": "Point", "coordinates": [ -84.3902644, 33.7489924 ] } },
{ "type": "Feature", "properties": { "city": "Crossville, Tennessee", "time_int": 4793 }, "geometry": { "type": "Point", "coordinates": [ -85.0274835, 35.949684 ] } },
{ "type": "Feature", "properties": { "city": "Crossville, Tennessee", "time_int": 4795 }, "geometry": { "type": "Point", "coordinates": [ -85.0274835, 35.949684 ] } },
{ "type": "Feature", "properties": { "city": "Carlisle, Pennsylvania", "time_int": 4796 }, "geometry": { "type": "Point", "coordinates": [ -77.1890783, 40.201499 ] } },
{ "type": "Feature", "properties": { "city": "Carlisle, Pennsylvania", "time_int": 4878 }, "geometry": { "type": "Point", "coordinates": [ -77.1890783, 40.201499 ] } },
{ "type": "Feature", "properties": { "city": "Pittsburgh, Pennsylvania", "time_int": 4879 }, "geometry": { "type": "Point", "coordinates": [ -79.9900861, 40.4416941 ] } },
{ "type": "Feature", "properties": { "city": "Carlisle, Pennsylvania", "time_int": 4880 }, "geometry": { "type": "Point", "coordinates": [ -77.1890783, 40.201499 ] } },
{ "type": "Feature", "properties": { "city": "Carlisle, Pennsylvania", "time_int": 4923 }, "geometry": { "type": "Point", "coordinates": [ -77.1890783, 40.201499 ] } },
{ "type": "Feature", "properties": { "city": "Crossville, Tennessee", "time_int": 4924 }, "geometry": { "type": "Point", "coordinates": [ -85.0274835, 35.949684 ] } },
{ "type": "Feature", "properties": { "city": "Crossville, Tennessee", "time_int": 4927 }, "geometry": { "type": "Point", "coordinates": [ -85.0274835, 35.949684 ] } },
{ "type": "Feature", "properties": { "city": "Carlisle, Pennsylvania", "time_int": 4928 }, "geometry": { "type": "Point", "coordinates": [ -77.1890783, 40.201499 ] } },
{ "type": "Feature", "properties": { "city": "Carlisle, Pennsylvania", "time_int": 4952 }, "geometry": { "type": "Point", "coordinates": [ -77.1890783, 40.201499 ] } },
{ "type": "Feature", "properties": { "city": "Springfield, Ohio", "time_int": 4953 }, "geometry": { "type": "Point", "coordinates": [ -83.810138, 39.9234046 ] } },
{ "type": "Feature", "properties": { "city": "Springfield, Ohio", "time_int": 4956 }, "geometry": { "type": "Point", "coordinates": [ -83.810138, 39.9234046 ] } },
{ "type": "Feature", "properties": { "city": "Carlisle, Pennsylvania", "time_int": 4957 }, "geometry": { "type": "Point", "coordinates": [ -77.1890783, 40.201499 ] } },
{ "type": "Feature", "properties": { "city": "Carlisle, Pennsylvania", "time_int": 5010 }, "geometry": { "type": "Point", "coordinates": [ -77.1890783, 40.201499 ] } },
{ "type": "Feature", "properties": { "city": "Philadelphia, Pennsylvania", "time_int": 5011 }, "geometry": { "type": "Point", "coordinates": [ -75.1635262, 39.9527237 ] } },
{ "type": "Feature", "properties": { "city": "Philadelphia, Pennsylvania", "time_int": 5012 }, "geometry": { "type": "Point", "coordinates": [ -75.1635262, 39.9527237 ] } },
{ "type": "Feature", "properties": { "city": "Carlisle, Pennsylvania", "time_int": 5013 }, "geometry": { "type": "Point", "coordinates": [ -77.1890783, 40.201499 ] } },
{ "type": "Feature", "properties": { "city": "Carlisle, Pennsylvania", "time_int": 5023 }, "geometry": { "type": "Point", "coordinates": [ -77.1890783, 40.201499 ] } },
{ "type": "Feature", "properties": { "city": "Westerville, Ohio", "time_int": 5024 }, "geometry": { "type": "Point", "coordinates": [ -82.9295287, 40.126139 ] } },
{ "type": "Feature", "properties": { "city": "Westerville, Ohio", "time_int": 5026 }, "geometry": { "type": "Point", "coordinates": [ -82.9295287, 40.126139 ] } },
{ "type": "Feature", "properties": { "city": "Carlisle, Pennsylvania", "time_int": 5027 }, "geometry": { "type": "Point", "coordinates": [ -77.1890783, 40.201499 ] } },
{ "type": "Feature", "properties": { "city": "Carlisle, Pennsylvania", "time_int": 5039 }, "geometry": { "type": "Point", "coordinates": [ -77.1890783, 40.201499 ] } },
{ "type": "Feature", "properties": { "city": "Sparta, New Jersey", "time_int": 5040 }, "geometry": { "type": "Point", "coordinates": [ -74.6310081, 41.0401567 ] } },
{ "type": "Feature", "properties": { "city": "West Point, New York", "time_int": 5041 }, "geometry": { "type": "Point", "coordinates": [ -72.5359869, 40.8512481 ] } },
{ "type": "Feature", "properties": { "city": "Carlisle, Pennsylvania", "time_int": 5042 }, "geometry": { "type": "Point", "coordinates": [ -77.1890783, 40.201499 ] } },
{ "type": "Feature", "properties": { "city": "Carlisle, Pennsylvania", "time_int": 5133 }, "geometry": { "type": "Point", "coordinates": [ -77.1890783, 40.201499 ] } },
{ "type": "Feature", "properties": { "city": "Washington, District of Columbia", "time_int": 5134 }, "geometry": { "type": "Point", "coordinates": [ -77.0365427, 38.8950368 ] } },
{ "type": "Feature", "properties": { "city": "Carlisle, Pennsylvania", "time_int": 5135 }, "geometry": { "type": "Point", "coordinates": [ -77.1890783, 40.201499 ] } },
{ "type": "Feature", "properties": { "city": "Carlisle, Pennsylvania", "time_int": 5138 }, "geometry": { "type": "Point", "coordinates": [ -77.1890783, 40.201499 ] } },
{ "type": "Feature", "properties": { "city": "Springfield, Ohio", "time_int": 5139 }, "geometry": { "type": "Point", "coordinates": [ -83.810138, 39.9234046 ] } },
{ "type": "Feature", "properties": { "city": "Springfield, Ohio", "time_int": 5141 }, "geometry": { "type": "Point", "coordinates": [ -83.810138, 39.9234046 ] } },
{ "type": "Feature", "properties": { "city": "Reading, Michigan", "time_int": 5142 }, "geometry": { "type": "Point", "coordinates": [ -84.7480134, 41.8394928 ] } },
{ "type": "Feature", "properties": { "city": "Reading, Michigan", "time_int": 5145 }, "geometry": { "type": "Point", "coordinates": [ -84.7480134, 41.8394928 ] } },
{ "type": "Feature", "properties": { "city": "Carlisle, Pennsylvania", "time_int": 5146 }, "geometry": { "type": "Point", "coordinates": [ -77.1890783, 40.201499 ] } },
{ "type": "Feature", "properties": { "city": "Carlisle, Pennsylvania", "time_int": 5175 }, "geometry": { "type": "Point", "coordinates": [ -77.1890783, 40.201499 ] } },
{ "type": "Feature", "properties": { "city": "Reading, Michigan", "time_int": 5176 }, "geometry": { "type": "Point", "coordinates": [ -84.7480134, 41.8394928 ] } },
{ "type": "Feature", "properties": { "city": "Reading, Michigan", "time_int": 5178 }, "geometry": { "type": "Point", "coordinates": [ -84.7480134, 41.8394928 ] } },
{ "type": "Feature", "properties": { "city": "Carlisle, Pennsylvania", "time_int": 5179 }, "geometry": { "type": "Point", "coordinates": [ -77.1890783, 40.201499 ] } },
{ "type": "Feature", "properties": { "city": "Carlisle, Pennsylvania", "time_int": 5288 }, "geometry": { "type": "Point", "coordinates": [ -77.1890783, 40.201499 ] } },
{ "type": "Feature", "properties": { "city": "Springfield, Ohio", "time_int": 5289 }, "geometry": { "type": "Point", "coordinates": [ -83.810138, 39.9234046 ] } },
{ "type": "Feature", "properties": { "city": "Springfield, Ohio", "time_int": 5292 }, "geometry": { "type": "Point", "coordinates": [ -83.810138, 39.9234046 ] } },
{ "type": "Feature", "properties": { "city": "Carlisle, Pennsylvania", "time_int": 5293 }, "geometry": { "type": "Point", "coordinates": [ -77.1890783, 40.201499 ] } },
{ "type": "Feature", "properties": { "city": "Carlisle, Pennsylvania", "time_int": 5317 }, "geometry": { "type": "Point", "coordinates": [ -77.1890783, 40.201499 ] } },
{ "type": "Feature", "properties": { "city": "Crossville, Tennessee", "time_int": 5318 }, "geometry": { "type": "Point", "coordinates": [ -85.0274835, 35.949684 ] } },
{ "type": "Feature", "properties": { "city": "Crossville, Tennessee", "time_int": 5321 }, "geometry": { "type": "Point", "coordinates": [ -85.0274835, 35.949684 ] } },
{ "type": "Feature", "properties": { "city": "Carlisle, Pennsylvania", "time_int": 5322 }, "geometry": { "type": "Point", "coordinates": [ -77.1890783, 40.201499 ] } },
{ "type": "Feature", "properties": { "city": "Carlisle, Pennsylvania", "time_int": 5504 }, "geometry": { "type": "Point", "coordinates": [ -77.1890783, 40.201499 ] } },
{ "type": "Feature", "properties": { "city": "Springfield, Ohio", "time_int": 5505 }, "geometry": { "type": "Point", "coordinates": [ -83.810138, 39.9234046 ] } },
{ "type": "Feature", "properties": { "city": "Springfield, Ohio", "time_int": 5506 }, "geometry": { "type": "Point", "coordinates": [ -83.810138, 39.9234046 ] } },
{ "type": "Feature", "properties": { "city": "Reading, Michigan", "time_int": 5507 }, "geometry": { "type": "Point", "coordinates": [ -84.7480134, 41.8394928 ] } },
{ "type": "Feature", "properties": { "city": "Reading, Michigan", "time_int": 5510 }, "geometry": { "type": "Point", "coordinates": [ -84.7480134, 41.8394928 ] } },
{ "type": "Feature", "properties": { "city": "Springfield, Ohio", "time_int": 5511 }, "geometry": { "type": "Point", "coordinates": [ -83.810138, 39.9234046 ] } },
{ "type": "Feature", "properties": { "city": "Springfield, Ohio", "time_int": 5513 }, "geometry": { "type": "Point", "coordinates": [ -83.810138, 39.9234046 ] } },
{ "type": "Feature", "properties": { "city": "Denver, Colorado", "time_int": 5514 }, "geometry": { "type": "Point", "coordinates": [ -104.9848623, 39.7392364 ] } },
{ "type": "Feature", "properties": { "city": "Denver, Colorado", "time_int": 5515 }, "geometry": { "type": "Point", "coordinates": [ -104.9848623, 39.7392364 ] } },
{ "type": "Feature", "properties": { "city": "Somers, Montana", "time_int": 5516 }, "geometry": { "type": "Point", "coordinates": [ -114.2311672928749, 48.087058 ] } },
{ "type": "Feature", "properties": { "city": "Somers, Montana", "time_int": 5517 }, "geometry": { "type": "Point", "coordinates": [ -114.2311672928749, 48.087058 ] } },
{ "type": "Feature", "properties": { "city": "Glacier National Park, Montana", "time_int": 5518 }, "geometry": { "type": "Point", "coordinates": [ -113.76088505945765, 48.6174862 ] } },
{ "type": "Feature", "properties": { "city": "Somers, Montana", "time_int": 5519 }, "geometry": { "type": "Point", "coordinates": [ -114.2311672928749, 48.087058 ] } },
{ "type": "Feature", "properties": { "city": "Somers, Montana", "time_int": 5521 }, "geometry": { "type": "Point", "coordinates": [ -114.2311672928749, 48.087058 ] } },
{ "type": "Feature", "properties": { "city": "Denver, Colorado", "time_int": 5522 }, "geometry": { "type": "Point", "coordinates": [ -104.9848623, 39.7392364 ] } },
{ "type": "Feature", "properties": { "city": "Carlisle, Pennsylvania", "time_int": 5523 }, "geometry": { "type": "Point", "coordinates": [ -77.1890783, 40.201499 ] } },
{ "type": "Feature", "properties": { "city": "Carlisle, Pennsylvania", "time_int": 5528 }, "geometry": { "type": "Point", "coordinates": [ -77.1890783, 40.201499 ] } },
{ "type": "Feature", "properties": { "city": "Washington, District of Columbia", "time_int": 5529 }, "geometry": { "type": "Point", "coordinates": [ -77.0365427, 38.8950368 ] } },
{ "type": "Feature", "properties": { "city": "Brussels, Belgium", "time_int": 5530 }, "geometry": { "type": "Point", "coordinates": [ 4.351697, 50.8465573 ] } },
{ "type": "Feature", "properties": { "city": "Brussels, Belgium", "time_int": 5534 }, "geometry": { "type": "Point", "coordinates": [ 4.351697, 50.8465573 ] } },
{ "type": "Feature", "properties": { "city": "Garmisch-Partenkirchen, Germany", "time_int": 5535 }, "geometry": { "type": "Point", "coordinates": [ 11.0962815, 47.4923741 ] } },
{ "type": "Feature", "properties": { "city": "Garmisch-Partenkirchen, Germany", "time_int": 5548 }, "geometry": { "type": "Point", "coordinates": [ 11.0962815, 47.4923741 ] } },
{ "type": "Feature", "properties": { "city": "Frankfurt, Germany", "time_int": 5549 }, "geometry": { "type": "Point", "coordinates": [ 8.6820917, 50.1106444 ] } },
{ "type": "Feature", "properties": { "city": "Skopje, North Macedonia", "time_int": 5550 }, "geometry": { "type": "Point", "coordinates": [ 21.4316495, 41.9960924 ] } },
{ "type": "Feature", "properties": { "city": "Skopje, North Macedonia", "time_int": 5584 }, "geometry": { "type": "Point", "coordinates": [ 21.4316495, 41.9960924 ] } },
{ "type": "Feature", "properties": { "city": "Thessaloniki, Greece", "time_int": 5585 }, "geometry": { "type": "Point", "coordinates": [ 22.9352716, 40.6403167 ] } },
{ "type": "Feature", "properties": { "city": "Skopje, North Macedonia", "time_int": 5586 }, "geometry": { "type": "Point", "coordinates": [ 21.4316495, 41.9960924 ] } },
{ "type": "Feature", "properties": { "city": "Skopje, North Macedonia", "time_int": 5592 }, "geometry": { "type": "Point", "coordinates": [ 21.4316495, 41.9960924 ] } },
{ "type": "Feature", "properties": { "city": "Pristina, Kosovo", "time_int": 5593 }, "geometry": { "type": "Point", "coordinates": [ 21.1640849, 42.6638771 ] } },
{ "type": "Feature", "properties": { "city": "Skopje, North Macedonia", "time_int": 5594 }, "geometry": { "type": "Point", "coordinates": [ 21.4316495, 41.9960924 ] } },
{ "type": "Feature", "properties": { "city": "Skopje, North Macedonia", "time_int": 5632 }, "geometry": { "type": "Point", "coordinates": [ 21.4316495, 41.9960924 ] } },
{ "type": "Feature", "properties": { "city": "Belgrade, Serbia", "time_int": 5633 }, "geometry": { "type": "Point", "coordinates": [ 20.4568974, 44.8178131 ] } },
{ "type": "Feature", "properties": { "city": "Belgrade, Serbia", "time_int": 5635 }, "geometry": { "type": "Point", "coordinates": [ 20.4568974, 44.8178131 ] } },
{ "type": "Feature", "properties": { "city": "Skopje, North Macedonia", "time_int": 5636 }, "geometry": { "type": "Point", "coordinates": [ 21.4316495, 41.9960924 ] } },
{ "type": "Feature", "properties": { "city": "Skopje, North Macedonia", "time_int": 5651 }, "geometry": { "type": "Point", "coordinates": [ 21.4316495, 41.9960924 ] } },
{ "type": "Feature", "properties": { "city": "Istanbul, Turkey", "time_int": 5652 }, "geometry": { "type": "Point", "coordinates": [ 28.9651646, 41.0096334 ] } },
{ "type": "Feature", "properties": { "city": "Istanbul, Turkey", "time_int": 5656 }, "geometry": { "type": "Point", "coordinates": [ 28.9651646, 41.0096334 ] } },
{ "type": "Feature", "properties": { "city": "Skopje, North Macedonia", "time_int": 5657 }, "geometry": { "type": "Point", "coordinates": [ 21.4316495, 41.9960924 ] } },
{ "type": "Feature", "properties": { "city": "Skopje, North Macedonia", "time_int": 5695 }, "geometry": { "type": "Point", "coordinates": [ 21.4316495, 41.9960924 ] } },
{ "type": "Feature", "properties": { "city": "Garmisch-Partenkirchen, Germany", "time_int": 5696 }, "geometry": { "type": "Point", "coordinates": [ 11.0962815, 47.4923741 ] } },
{ "type": "Feature", "properties": { "city": "Garmisch-Partenkirchen, Germany", "time_int": 5697 }, "geometry": { "type": "Point", "coordinates": [ 11.0962815, 47.4923741 ] } },
{ "type": "Feature", "properties": { "city": "Ehrwald, Austria", "time_int": 5698 }, "geometry": { "type": "Point", "coordinates": [ 10.931618346105244, 47.414646 ] } },
{ "type": "Feature", "properties": { "city": "Garmisch-Partenkirchen, Germany", "time_int": 5699 }, "geometry": { "type": "Point", "coordinates": [ 11.0962815, 47.4923741 ] } },
{ "type": "Feature", "properties": { "city": "Garmisch-Partenkirchen, Germany", "time_int": 5701 }, "geometry": { "type": "Point", "coordinates": [ 11.0962815, 47.4923741 ] } },
{ "type": "Feature", "properties": { "city": "Skopje, North Macedonia", "time_int": 5702 }, "geometry": { "type": "Point", "coordinates": [ 21.4316495, 41.9960924 ] } },
{ "type": "Feature", "properties": { "city": "Skopje, North Macedonia", "time_int": 5732 }, "geometry": { "type": "Point", "coordinates": [ 21.4316495, 41.9960924 ] } },
{ "type": "Feature", "properties": { "city": "Popova Sapka, North Macedonia", "time_int": 5733 }, "geometry": { "type": "Point", "coordinates": [ 20.886045, 42.0165842 ] } },
{ "type": "Feature", "properties": { "city": "Skopje, North Macedonia", "time_int": 5734 }, "geometry": { "type": "Point", "coordinates": [ 21.4316495, 41.9960924 ] } },
{ "type": "Feature", "properties": { "city": "Skopje, North Macedonia", "time_int": 5745 }, "geometry": { "type": "Point", "coordinates": [ 21.4316495, 41.9960924 ] } },
{ "type": "Feature", "properties": { "city": "Sofia, Bulgaria", "time_int": 5746 }, "geometry": { "type": "Point", "coordinates": [ 23.3221789, 42.6978634 ] } },
{ "type": "Feature", "properties": { "city": "Sofia, Bulgaria", "time_int": 5747 }, "geometry": { "type": "Point", "coordinates": [ 23.3221789, 42.6978634 ] } },
{ "type": "Feature", "properties": { "city": "Skopje, North Macedonia", "time_int": 5748 }, "geometry": { "type": "Point", "coordinates": [ 21.4316495, 41.9960924 ] } },
{ "type": "Feature", "properties": { "city": "Skopje, North Macedonia", "time_int": 5757 }, "geometry": { "type": "Point", "coordinates": [ 21.4316495, 41.9960924 ] } },
{ "type": "Feature", "properties": { "city": "Vienna, Austria", "time_int": 5758 }, "geometry": { "type": "Point", "coordinates": [ 16.3725042, 48.2083537 ] } },
{ "type": "Feature", "properties": { "city": "Vilnius, Lithuania", "time_int": 5759 }, "geometry": { "type": "Point", "coordinates": [ 25.2829111, 54.6870458 ] } },
{ "type": "Feature", "properties": { "city": "Vilnius, Lithuania", "time_int": 5761 }, "geometry": { "type": "Point", "coordinates": [ 25.2829111, 54.6870458 ] } },
{ "type": "Feature", "properties": { "city": "Skopje, North Macedonia", "time_int": 5762 }, "geometry": { "type": "Point", "coordinates": [ 21.4316495, 41.9960924 ] } },
{ "type": "Feature", "properties": { "city": "Skopje, North Macedonia", "time_int": 5808 }, "geometry": { "type": "Point", "coordinates": [ 21.4316495, 41.9960924 ] } },
{ "type": "Feature", "properties": { "city": "Dubrovnik, Croatia", "time_int": 5809 }, "geometry": { "type": "Point", "coordinates": [ 18.094680152605108, 42.64873625 ] } },
{ "type": "Feature", "properties": { "city": "Dubrovnik, Croatia", "time_int": 5813 }, "geometry": { "type": "Point", "coordinates": [ 18.094680152605108, 42.64873625 ] } },
{ "type": "Feature", "properties": { "city": "Mljet, Croatia", "time_int": 5814 }, "geometry": { "type": "Point", "coordinates": [ 17.546324454358178, 42.7459754 ] } },
{ "type": "Feature", "properties": { "city": "Mljet, Croatia", "time_int": 5817 }, "geometry": { "type": "Point", "coordinates": [ 17.546324454358178, 42.7459754 ] } },
{ "type": "Feature", "properties": { "city": "Skopje, North Macedonia", "time_int": 5818 }, "geometry": { "type": "Point", "coordinates": [ 21.4316495, 41.9960924 ] } },
{ "type": "Feature", "properties": { "city": "Skopje, North Macedonia", "time_int": 5828 }, "geometry": { "type": "Point", "coordinates": [ 21.4316495, 41.9960924 ] } },
{ "type": "Feature", "properties": { "city": "Sofia, Bulgaria", "time_int": 5829 }, "geometry": { "type": "Point", "coordinates": [ 23.3221789, 42.6978634 ] } },
{ "type": "Feature", "properties": { "city": "Sofia, Bulgaria", "time_int": 5831 }, "geometry": { "type": "Point", "coordinates": [ 23.3221789, 42.6978634 ] } },
{ "type": "Feature", "properties": { "city": "Skopje, North Macedonia", "time_int": 5832 }, "geometry": { "type": "Point", "coordinates": [ 21.4316495, 41.9960924 ] } },
{ "type": "Feature", "properties": { "city": "Skopje, North Macedonia", "time_int": 5872 }, "geometry": { "type": "Point", "coordinates": [ 21.4316495, 41.9960924 ] } },
{ "type": "Feature", "properties": { "city": "Dayton, Ohio", "time_int": 5873 }, "geometry": { "type": "Point", "coordinates": [ -84.1916069, 39.7589478 ] } },
{ "type": "Feature", "properties": { "city": "Springfield, Ohio", "time_int": 5874 }, "geometry": { "type": "Point", "coordinates": [ -83.810138, 39.9234046 ] } },
{ "type": "Feature", "properties": { "city": "Springfield, Ohio", "time_int": 5876 }, "geometry": { "type": "Point", "coordinates": [ -83.810138, 39.9234046 ] } },
{ "type": "Feature", "properties": { "city": "Reading, Michigan", "time_int": 5877 }, "geometry": { "type": "Point", "coordinates": [ -84.7480134, 41.8394928 ] } },
{ "type": "Feature", "properties": { "city": "Reading, Michigan", "time_int": 5880 }, "geometry": { "type": "Point", "coordinates": [ -84.7480134, 41.8394928 ] } },
{ "type": "Feature", "properties": { "city": "Crossville, Tennessee", "time_int": 5881 }, "geometry": { "type": "Point", "coordinates": [ -85.0274835, 35.949684 ] } },
{ "type": "Feature", "properties": { "city": "Crossville, Tennessee", "time_int": 5887 }, "geometry": { "type": "Point", "coordinates": [ -85.0274835, 35.949684 ] } },
{ "type": "Feature", "properties": { "city": "Carlisle, Pennsylvania", "time_int": 5888 }, "geometry": { "type": "Point", "coordinates": [ -77.1890783, 40.201499 ] } },
{ "type": "Feature", "properties": { "city": "Carlisle, Pennsylvania", "time_int": 5892 }, "geometry": { "type": "Point", "coordinates": [ -77.1890783, 40.201499 ] } },
{ "type": "Feature", "properties": { "city": "Springfield, Ohio", "time_int": 5893 }, "geometry": { "type": "Point", "coordinates": [ -83.810138, 39.9234046 ] } },
{ "type": "Feature", "properties": { "city": "Springfield, Ohio", "time_int": 5905 }, "geometry": { "type": "Point", "coordinates": [ -83.810138, 39.9234046 ] } },
{ "type": "Feature", "properties": { "city": "Skopje, North Macedonia", "time_int": 5906 }, "geometry": { "type": "Point", "coordinates": [ 21.4316495, 41.9960924 ] } },
{ "type": "Feature", "properties": { "city": "Skopje, North Macedonia", "time_int": 5974 }, "geometry": { "type": "Point", "coordinates": [ 21.4316495, 41.9960924 ] } },
{ "type": "Feature", "properties": { "city": "Gerakini, Greece", "time_int": 5975 }, "geometry": { "type": "Point", "coordinates": [ 23.4432652, 40.2792844 ] } },
{ "type": "Feature", "properties": { "city": "Gerakini, Greece", "time_int": 5978 }, "geometry": { "type": "Point", "coordinates": [ 23.4432652, 40.2792844 ] } },
{ "type": "Feature", "properties": { "city": "Skopje, North Macedonia", "time_int": 5979 }, "geometry": { "type": "Point", "coordinates": [ 21.4316495, 41.9960924 ] } },
{ "type": "Feature", "properties": { "city": "Skopje, North Macedonia", "time_int": 6057 }, "geometry": { "type": "Point", "coordinates": [ 21.4316495, 41.9960924 ] } },
{ "type": "Feature", "properties": { "city": "Johannesburg, South Africa", "time_int": 6058 }, "geometry": { "type": "Point", "coordinates": [ 28.049722, -26.205 ] } },
{ "type": "Feature", "properties": { "city": "Kruger National Park, South Africa", "time_int": 6059 }, "geometry": { "type": "Point", "coordinates": [ 31.49070131950694, -23.91530335 ] } },
{ "type": "Feature", "properties": { "city": "Kruger National Park, South Africa", "time_int": 6061 }, "geometry": { "type": "Point", "coordinates": [ 31.49070131950694, -23.91530335 ] } },
{ "type": "Feature", "properties": { "city": "Cape Town, South Africa", "time_int": 6062 }, "geometry": { "type": "Point", "coordinates": [ 18.417396, -33.928992 ] } },
{ "type": "Feature", "properties": { "city": "Cape Town, South Africa", "time_int": 6068 }, "geometry": { "type": "Point", "coordinates": [ 18.417396, -33.928992 ] } },
{ "type": "Feature", "properties": { "city": "Skopje, North Macedonia", "time_int": 6069 }, "geometry": { "type": "Point", "coordinates": [ 21.4316495, 41.9960924 ] } },
{ "type": "Feature", "properties": { "city": "Skopje, North Macedonia", "time_int": 6101 }, "geometry": { "type": "Point", "coordinates": [ 21.4316495, 41.9960924 ] } },
{ "type": "Feature", "properties": { "city": "Campitello di Fassa, Italy", "time_int": 6102 }, "geometry": { "type": "Point", "coordinates": [ 11.7415253, 46.4761678 ] } },
{ "type": "Feature", "properties": { "city": "Campitello di Fassa, Italy", "time_int": 6105 }, "geometry": { "type": "Point", "coordinates": [ 11.7415253, 46.4761678 ] } },
{ "type": "Feature", "properties": { "city": "Skopje, North Macedonia", "time_int": 6106 }, "geometry": { "type": "Point", "coordinates": [ 21.4316495, 41.9960924 ] } },
{ "type": "Feature", "properties": { "city": "Skopje, North Macedonia", "time_int": 6150 }, "geometry": { "type": "Point", "coordinates": [ 21.4316495, 41.9960924 ] } },
{ "type": "Feature", "properties": { "city": "Thessaloniki, Greece", "time_int": 6151 }, "geometry": { "type": "Point", "coordinates": [ 22.9352716, 40.6403167 ] } },
{ "type": "Feature", "properties": { "city": "Thessaloniki, Greece", "time_int": 6152 }, "geometry": { "type": "Point", "coordinates": [ 22.9352716, 40.6403167 ] } },
{ "type": "Feature", "properties": { "city": "Skopje, North Macedonia", "time_int": 6153 }, "geometry": { "type": "Point", "coordinates": [ 21.4316495, 41.9960924 ] } },
{ "type": "Feature", "properties": { "city": "Skopje, North Macedonia", "time_int": 6159 }, "geometry": { "type": "Point", "coordinates": [ 21.4316495, 41.9960924 ] } },
{ "type": "Feature", "properties": { "city": "Zagora, Greece", "time_int": 6160 }, "geometry": { "type": "Point", "coordinates": [ 23.1022243, 39.4438441 ] } },
{ "type": "Feature", "properties": { "city": "Zagora, Greece", "time_int": 6163 }, "geometry": { "type": "Point", "coordinates": [ 23.1022243, 39.4438441 ] } },
{ "type": "Feature", "properties": { "city": "Meteora, Greece", "time_int": 6164 }, "geometry": { "type": "Point", "coordinates": [ 21.632187882297121, 39.7218479 ] } },
{ "type": "Feature", "properties": { "city": "Meteora, Greece", "time_int": 6166 }, "geometry": { "type": "Point", "coordinates": [ 21.632187882297121, 39.7218479 ] } },
{ "type": "Feature", "properties": { "city": "Skopje, North Macedonia", "time_int": 6167 }, "geometry": { "type": "Point", "coordinates": [ 21.4316495, 41.9960924 ] } },
{ "type": "Feature", "properties": { "city": "Skopje, North Macedonia", "time_int": 6193 }, "geometry": { "type": "Point", "coordinates": [ 21.4316495, 41.9960924 ] } },
{ "type": "Feature", "properties": { "city": "Belgrade, Serbia", "time_int": 6194 }, "geometry": { "type": "Point", "coordinates": [ 20.4568974, 44.8178131 ] } },
{ "type": "Feature", "properties": { "city": "Belgrade, Serbia", "time_int": 6195 }, "geometry": { "type": "Point", "coordinates": [ 20.4568974, 44.8178131 ] } },
{ "type": "Feature", "properties": { "city": "Skopje, North Macedonia", "time_int": 6196 }, "geometry": { "type": "Point", "coordinates": [ 21.4316495, 41.9960924 ] } },
{ "type": "Feature", "properties": { "city": "Skopje, North Macedonia", "time_int": 6198 }, "geometry": { "type": "Point", "coordinates": [ 21.4316495, 41.9960924 ] } },
{ "type": "Feature", "properties": { "city": "Garmisch-Partenkirchen, Germany", "time_int": 6199 }, "geometry": { "type": "Point", "coordinates": [ 11.0962815, 47.4923741 ] } },
{ "type": "Feature", "properties": { "city": "Garmisch-Partenkirchen, Germany", "time_int": 6204 }, "geometry": { "type": "Point", "coordinates": [ 11.0962815, 47.4923741 ] } },
{ "type": "Feature", "properties": { "city": "Skopje, North Macedonia", "time_int": 6205 }, "geometry": { "type": "Point", "coordinates": [ 21.4316495, 41.9960924 ] } },
{ "type": "Feature", "properties": { "city": "Skopje, North Macedonia", "time_int": 6230 }, "geometry": { "type": "Point", "coordinates": [ 21.4316495, 41.9960924 ] } },
{ "type": "Feature", "properties": { "city": "Carlisle, Pennsylvania", "time_int": 6231 }, "geometry": { "type": "Point", "coordinates": [ -77.1890783, 40.201499 ] } },
{ "type": "Feature", "properties": { "city": "Carlisle, Pennsylvania", "time_int": 6239 }, "geometry": { "type": "Point", "coordinates": [ -77.1890783, 40.201499 ] } },
{ "type": "Feature", "properties": { "city": "Reading, Michigan", "time_int": 6240 }, "geometry": { "type": "Point", "coordinates": [ -84.7480134, 41.8394928 ] } },
{ "type": "Feature", "properties": { "city": "Reading, Michigan", "time_int": 6244 }, "geometry": { "type": "Point", "coordinates": [ -84.7480134, 41.8394928 ] } },
{ "type": "Feature", "properties": { "city": "Westerville, Ohio", "time_int": 6245 }, "geometry": { "type": "Point", "coordinates": [ -82.9295287, 40.126139 ] } },
{ "type": "Feature", "properties": { "city": "Westerville, Ohio", "time_int": 6246 }, "geometry": { "type": "Point", "coordinates": [ -82.9295287, 40.126139 ] } },
{ "type": "Feature", "properties": { "city": "Chicago, Illinois", "time_int": 6247 }, "geometry": { "type": "Point", "coordinates": [ -87.6244212, 41.8755616 ] } },
{ "type": "Feature", "properties": { "city": "Rochester, Minnesota", "time_int": 6248 }, "geometry": { "type": "Point", "coordinates": [ -92.4630182, 44.0234387 ] } },
{ "type": "Feature", "properties": { "city": "Rapid City, South Dakota", "time_int": 6249 }, "geometry": { "type": "Point", "coordinates": [ -103.2274481, 44.0869329 ] } },
{ "type": "Feature", "properties": { "city": "Somers, Montana", "time_int": 6250 }, "geometry": { "type": "Point", "coordinates": [ -114.2311672928749, 48.087058 ] } },
{ "type": "Feature", "properties": { "city": "Somers, Montana", "time_int": 6251 }, "geometry": { "type": "Point", "coordinates": [ -114.2311672928749, 48.087058 ] } },
{ "type": "Feature", "properties": { "city": "Glacier National Park, Montana", "time_int": 6252 }, "geometry": { "type": "Point", "coordinates": [ -113.76088505945765, 48.6174862 ] } },
{ "type": "Feature", "properties": { "city": "Somers, Montana", "time_int": 6253 }, "geometry": { "type": "Point", "coordinates": [ -114.2311672928749, 48.087058 ] } },
{ "type": "Feature", "properties": { "city": "Somers, Montana", "time_int": 6255 }, "geometry": { "type": "Point", "coordinates": [ -114.2311672928749, 48.087058 ] } },
{ "type": "Feature", "properties": { "city": "Marquette, Iowa", "time_int": 6256 }, "geometry": { "type": "Point", "coordinates": [ -91.1793055, 43.0450606 ] } },
{ "type": "Feature", "properties": { "city": "Chicago, Illinois", "time_int": 6257 }, "geometry": { "type": "Point", "coordinates": [ -87.6244212, 41.8755616 ] } },
{ "type": "Feature", "properties": { "city": "Westerville, Ohio", "time_int": 6258 }, "geometry": { "type": "Point", "coordinates": [ -82.9295287, 40.126139 ] } },
{ "type": "Feature", "properties": { "city": "Westerville, Ohio", "time_int": 6259 }, "geometry": { "type": "Point", "coordinates": [ -82.9295287, 40.126139 ] } },
{ "type": "Feature", "properties": { "city": "Carlisle, Pennsylvania", "time_int": 6260 }, "geometry": { "type": "Point", "coordinates": [ -77.1890783, 40.201499 ] } },
{ "type": "Feature", "properties": { "city": "Carlisle, Pennsylvania", "time_int": 6297 }, "geometry": { "type": "Point", "coordinates": [ -77.1890783, 40.201499 ] } },
{ "type": "Feature", "properties": { "city": "Baltimore, Maryland", "time_int": 6298 }, "geometry": { "type": "Point", "coordinates": [ -76.610759, 39.2908816 ] } },
{ "type": "Feature", "properties": { "city": "Carlisle, Pennsylvania", "time_int": 6299 }, "geometry": { "type": "Point", "coordinates": [ -77.1890783, 40.201499 ] } },
{ "type": "Feature", "properties": { "city": "Carlisle, Pennsylvania", "time_int": 6387 }, "geometry": { "type": "Point", "coordinates": [ -77.1890783, 40.201499 ] } },
{ "type": "Feature", "properties": { "city": "Crossville, Tennessee", "time_int": 6388 }, "geometry": { "type": "Point", "coordinates": [ -85.0274835, 35.949684 ] } },
{ "type": "Feature", "properties": { "city": "Crossville, Tennessee", "time_int": 6390 }, "geometry": { "type": "Point", "coordinates": [ -85.0274835, 35.949684 ] } },
{ "type": "Feature", "properties": { "city": "Carlisle, Pennsylvania", "time_int": 6391 }, "geometry": { "type": "Point", "coordinates": [ -77.1890783, 40.201499 ] } },
{ "type": "Feature", "properties": { "city": "Carlisle, Pennsylvania", "time_int": 6413 }, "geometry": { "type": "Point", "coordinates": [ -77.1890783, 40.201499 ] } },
{ "type": "Feature", "properties": { "city": "Springfield, Ohio", "time_int": 6414 }, "geometry": { "type": "Point", "coordinates": [ -83.810138, 39.9234046 ] } },
{ "type": "Feature", "properties": { "city": "Springfield, Ohio", "time_int": 6417 }, "geometry": { "type": "Point", "coordinates": [ -83.810138, 39.9234046 ] } },
{ "type": "Feature", "properties": { "city": "Carlisle, Pennsylvania", "time_int": 6418 }, "geometry": { "type": "Point", "coordinates": [ -77.1890783, 40.201499 ] } },
{ "type": "Feature", "properties": { "city": "Carlisle, Pennsylvania", "time_int": 6465 }, "geometry": { "type": "Point", "coordinates": [ -77.1890783, 40.201499 ] } },
{ "type": "Feature", "properties": { "city": "Burlington, Vermont", "time_int": 6466 }, "geometry": { "type": "Point", "coordinates": [ -73.212906, 44.4761601 ] } },
{ "type": "Feature", "properties": { "city": "Burlington, Vermont", "time_int": 6468 }, "geometry": { "type": "Point", "coordinates": [ -73.212906, 44.4761601 ] } },
{ "type": "Feature", "properties": { "city": "Carlisle, Pennsylvania", "time_int": 6469 }, "geometry": { "type": "Point", "coordinates": [ -77.1890783, 40.201499 ] } },
{ "type": "Feature", "properties": { "city": "Carlisle, Pennsylvania", "time_int": 6487 }, "geometry": { "type": "Point", "coordinates": [ -77.1890783, 40.201499 ] } },
{ "type": "Feature", "properties": { "city": "Westerville, Ohio", "time_int": 6488 }, "geometry": { "type": "Point", "coordinates": [ -82.9295287, 40.126139 ] } },
{ "type": "Feature", "properties": { "city": "Westerville, Ohio", "time_int": 6489 }, "geometry": { "type": "Point", "coordinates": [ -82.9295287, 40.126139 ] } },
{ "type": "Feature", "properties": { "city": "Carlisle, Pennsylvania", "time_int": 6490 }, "geometry": { "type": "Point", "coordinates": [ -77.1890783, 40.201499 ] } },
{ "type": "Feature", "properties": { "city": "Carlisle, Pennsylvania", "time_int": 6500 }, "geometry": { "type": "Point", "coordinates": [ -77.1890783, 40.201499 ] } },
{ "type": "Feature", "properties": { "city": "Pittsburgh, Pennsylvania", "time_int": 6501 }, "geometry": { "type": "Point", "coordinates": [ -79.9900861, 40.4416941 ] } },
{ "type": "Feature", "properties": { "city": "Carlisle, Pennsylvania", "time_int": 6502 }, "geometry": { "type": "Point", "coordinates": [ -77.1890783, 40.201499 ] } },
{ "type": "Feature", "properties": { "city": "Carlisle, Pennsylvania", "time_int": 6522 }, "geometry": { "type": "Point", "coordinates": [ -77.1890783, 40.201499 ] } },
{ "type": "Feature", "properties": { "city": "Bethlehem, Pennsylvania", "time_int": 6523 }, "geometry": { "type": "Point", "coordinates": [ -75.3786521, 40.6178915 ] } },